[{"id":"bQeplLMJK6dT1CcH0vdWnA","alias":"4-every-occasion-cakes-and-cupcakes-philadelphia","name":"4 Every Occasion Cakes & Cupcakes","image_url":"https://s3-media0.fl.yelpcdn.com/bphoto/WpxwVGzn9lQjLRdQWv6LMw/o.jpg","is_closed":false,"url":"https://www.yelp.com/biz/4-every-occasion-cakes-and-cupcakes-philadelphia?adjust_creative=yF-muq-4vG-V-hKgmMcRvQ&utm_campaign=yelp_api_v3&utm_medium=api_v3_phone_search&utm_source=yF-muq-4vG-V-hKgmMcRvQ","review_count":19,"categories":[{"alias":"bakeries","title":"Bakeries"},{"alias":"customcakes","title":"Custom Cakes"},{"alias":"cupcakes","title":"Cupcakes"}],"rating":3.5,"coordinates":{"latitude":40.0530586242676,"longitude":-75.0686721801758},"transactions":[],"location":{"address1":"1821 Cottman Ave","address2":null,"address3":"","city":"Philadelphia","zip_code":"19111","country":"US","state":"PA","display_address":["1821 Cottman Ave","Philadelphia, PA 19111"]},"phone":"+12157222250","display_phone":"(215) 722-2250"},{"id":"KYPhGJIibu_7ePIX4HNs6A","alias":"48th-street-grille-philadelphia","name":"48th Street Grille","image_url":"https://s3-media0.fl.yelpcdn.com/bphoto/ErqtNP9eCDrByHb-xFDtrQ/o.jpg","is_closed":false,"url":"https://www.yelp.com/biz/48th-street-grille-philadelphia?adjust_creative=yF-muq-4vG-V-hKgmMcRvQ&utm_campaign=yelp_api_v3&utm_medium=api_v3_phone_search&utm_source=yF-muq-4vG-V-hKgmMcRvQ","review_count":238,"categories":[{"alias":"caribbean","title":"Caribbean"},{"alias":"newamerican","title":"American (New)"},{"alias":"chicken_wings","title":"Chicken Wings"}],"rating":4.5,"coordinates":{"latitude":39.95313,"longitude":-75.21878},"transactions":["pickup","restaurant_reservation"],"price":"$$","location":{"address1":"310 S 48th St","address2":"","address3":"","city":"Philadelphia","zip_code":"19143","country":"US","state":"PA","display_address":["310 S 48th St","Philadelphia, PA 19143"]},"phone":"+12672444764","display_phone":"(267) 244-4764"},{"id":"ckbvLKwjEb836t-EDKsVVg","alias":"abyssinia-philadelphia","name":"Abyssinia","image_url":"https://s3-media0.fl.yelpcdn.com/bphoto/kaLiioOg8Awc_SZPreySOQ/o.jpg","is_closed":false,"url":"https://www.yelp.com/biz/abyssinia-philadelphia?adjust_creative=yF-muq-4vG-V-hKgmMcRvQ&utm_campaign=yelp_api_v3&utm_medium=api_v3_phone_search&utm_source=yF-muq-4vG-V-hKgmMcRvQ","review_count":270,"categories":[{"alias":"ethiopian","title":"Ethiopian"},{"alias":"bars","title":"Bars"}],"rating":3.5,"coordinates":{"latitude":39.95415,"longitude":-75.2116099},"transactions":["pickup","delivery"],"price":"$$","location":{"address1":"229 S 45th St","address2":"","address3":"","city":"Philadelphia","zip_code":"19104","country":"US","state":"PA","display_address":["229 S 45th St","Philadelphia, PA 19104"]},"phone":"+12153872424","display_phone":"(215) 387-2424"},{"id":"9PCPV34KV1B_E3v1IUi4tQ","alias":"african-small-pot-philadelphia","name":"African Small Pot","image_url":"https://s3-media0.fl.yelpcdn.com/bphoto/ehcbTJZC4nhfT8UQz6GLcA/o.jpg","is_closed":false,"url":"https://www.yelp.com/biz/african-small-pot-philadelphia?adjust_creative=yF-muq-4vG-V-hKgmMcRvQ&utm_campaign=yelp_api_v3&utm_medium=api_v3_phone_search&utm_source=yF-muq-4vG-V-hKgmMcRvQ","review_count":44,"categories":[{"alias":"senegalese","title":"Senegalese"}],"rating":4,"coordinates":{"latitude":39.9255169286824,"longitude":-75.2345210195582},"transactions":["delivery"],"price":"$","location":{"address1":"6505 Woodland Ave","address2":"","address3":"","city":"Philadelphia","zip_code":"19142","country":"US","state":"PA","display_address":["6505 Woodland Ave","Philadelphia, PA 19142"]},"phone":"+12677137603","display_phone":"(267) 713-7603"},{"id":"XIKYdKWq72zUYsq8NBxcCQ","alias":"aksum-philadelphia","name":"Aksum","image_url":"https://s3-media0.fl.yelpcdn.com/bphoto/spTdv4UJMLDiZlg_H7Dzxw/o.jpg","is_closed":false,"url":"https://www.yelp.com/biz/aksum-philadelphia?adjust_creative=yF-muq-4vG-V-hKgmMcRvQ&utm_campaign=yelp_api_v3&utm_medium=api_v3_phone_search&utm_source=yF-muq-4vG-V-hKgmMcRvQ","review_count":369,"categories":[{"alias":"mediterranean","title":"Mediterranean"}],"rating":4,"coordinates":{"latitude":39.9485809,"longitude":-75.2161609},"transactions":["delivery"],"price":"$$","location":{"address1":"4630 Baltimore Ave","address2":"","address3":"","city":"Philadelphia","zip_code":"19143","country":"US","state":"PA","display_address":["4630 Baltimore Ave","Philadelphia, PA 19143"]},"phone":"+12672758195","display_phone":"(267) 275-8195"},{"id":"NDHgJsy-4Lb6WhERPXPs0A","alias":"alena-s-cafe-philadelphia","name":"Alenaâ€™s Cafe","image_url":"https://s3-media0.fl.yelpcdn.com/bphoto/RzPd-crLjQ8NbyqhJtFD6Q/o.jpg","is_closed":false,"url":"https://www.yelp.com/biz/alena-s-cafe-philadelphia?adjust_creative=yF-muq-4vG-V-hKgmMcRvQ&utm_campaign=yelp_api_v3&utm_medium=api_v3_phone_search&utm_source=yF-muq-4vG-V-hKgmMcRvQ","review_count":10,"categories":[{"alias":"cafes","title":"Cafes"}],"rating":5,"coordinates":{"latitude":40.0514183,"longitude":-75.1849065},"transactions":["delivery","pickup"],"location":{"address1":"6669 Germantown Ave","address2":null,"address3":"","city":"Philadelphia","zip_code":"19119","country":"US","state":"PA","display_address":["6669 Germantown Ave","Philadelphia, PA 19119"]},"phone":"+12674372152","display_phone":"(267) 437-2152"},{"id":"cSaoPFiZUzaTgnxM91KgXg","alias":"all-the-way-live-philadelphia","name":"All The Way Live","image_url":"https://s3-media0.fl.yelpcdn.com/bphoto/Bd0eBo6p4ZLLLIGGW2dLXg/o.jpg","is_closed":false,"url":"https://www.yelp.com/biz/all-the-way-live-philadelphia?adjust_creative=yF-muq-4vG-V-hKgmMcRvQ&utm_campaign=yelp_api_v3&utm_medium=api_v3_phone_search&utm_source=yF-muq-4vG-V-hKgmMcRvQ","review_count":54,"categories":[{"alias":"vegan","title":"Vegan"}],"rating":4,"coordinates":{"latitude":40.04056,"longitude":-75.17899},"transactions":["delivery","pickup"],"price":"$$","location":{"address1":"6108 Germantown Ave","address2":"","address3":"","city":"Philadelphia","zip_code":"19144","country":"US","state":"PA","display_address":["6108 Germantown Ave","Philadelphia, PA 19144"]},"phone":"+12158217298","display_phone":"(215) 821-7298"},{"id":"b0PRhOHyCi4AjQAMfWnjjQ","alias":"amalgam-comics-and-coffeehouse-philadelphia","name":"Amalgam Comics & Coffeehouse","image_url":"https://s3-media0.fl.yelpcdn.com/bphoto/_9dGemVOOMWLmi7f9_9qNg/o.jpg","is_closed":false,"url":"https://www.yelp.com/biz/amalgam-comics-and-coffeehouse-philadelphia?adjust_creative=yF-muq-4vG-V-hKgmMcRvQ&utm_campaign=yelp_api_v3&utm_medium=api_v3_phone_search&utm_source=yF-muq-4vG-V-hKgmMcRvQ","review_count":85,"categories":[{"alias":"coffee","title":"Coffee & Tea"},{"alias":"comicbooks","title":"Comic Books"}],"rating":4.5,"coordinates":{"latitude":39.985048794153,"longitude":-75.1244196271462},"transactions":[],"price":"$","location":{"address1":"2578 Frankford Ave","address2":"","address3":"","city":"Philadelphia","zip_code":"19125","country":"US","state":"PA","display_address":["2578 Frankford Ave","Philadelphia, PA 19125"]},"phone":"+12154273300","display_phone":"(215) 427-3300"},{"id":"IRF5JWf1dByxOwRxhz9Sbw","alias":"amaris-restaurant-philadelphia","name":"Amari's Restaurant","image_url":"https://s3-media0.fl.yelpcdn.com/bphoto/Qjs8nXLpDUzqFkoGfdLRHg/o.jpg","is_closed":false,"url":"https://www.yelp.com/biz/amaris-restaurant-philadelphia?adjust_creative=yF-muq-4vG-V-hKgmMcRvQ&utm_campaign=yelp_api_v3&utm_medium=api_v3_phone_search&utm_source=yF-muq-4vG-V-hKgmMcRvQ","review_count":56,"categories":[{"alias":"newamerican","title":"American (New)"},{"alias":"soulfood","title":"Soul Food"},{"alias":"seafood","title":"Seafood"}],"rating":3.5,"coordinates":{"latitude":39.9479848,"longitude":-75.2247445},"transactions":["pickup","delivery"],"price":"$","location":{"address1":"5037 Baltimore Ave","address2":"","address3":"","city":"Philadelphia","zip_code":"19143","country":"US","state":"PA","display_address":["5037 Baltimore Ave","Philadelphia, PA 19143"]},"phone":"+12159219552","display_phone":"(215) 921-9552"},{"id":"3-71QXMKNtHi4DvSFogm-Q","alias":"angies-kitchen-philadelphia","name":"Angie's Kitchen","image_url":"https://s3-media0.fl.yelpcdn.com/bphoto/NJbgEtIbQIGcP-P1VvONrA/o.jpg","is_closed":false,"url":"https://www.yelp.com/biz/angies-kitchen-philadelphia?adjust_creative=yF-muq-4vG-V-hKgmMcRvQ&utm_campaign=yelp_api_v3&utm_medium=api_v3_phone_search&utm_source=yF-muq-4vG-V-hKgmMcRvQ","review_count":6,"categories":[{"alias":"african","title":"African"}],"rating":4,"coordinates":{"latitude":39.94995,"longitude":-75.2272969},"transactions":["pickup"],"price":"$$","location":{"address1":"618 S 52nd St","address2":"","address3":"","city":"Philadelphia","zip_code":"19143","country":"US","state":"PA","display_address":["618 S 52nd St","Philadelphia, PA 19143"]},"phone":"+12154711422","display_phone":"(215) 471-1422"},{"id":"X-sCb_2Q46W5H2wbXmlK1w","alias":"atiya-olas-spirit-first-foods-philadelphia","name":"Atiya Ola's Spirit First Foods","image_url":"https://s3-media0.fl.yelpcdn.com/bphoto/3PXk-1Y0IScpliAN5mWslw/o.jpg","is_closed":false,"url":"https://www.yelp.com/biz/atiya-olas-spirit-first-foods-philadelphia?adjust_creative=yF-muq-4vG-V-hKgmMcRvQ&utm_campaign=yelp_api_v3&utm_medium=api_v3_phone_search&utm_source=yF-muq-4vG-V-hKgmMcRvQ","review_count":81,"categories":[{"alias":"raw_food","title":"Live/Raw Food"},{"alias":"burgers","title":"Burgers"},{"alias":"wraps","title":"Wraps"}],"rating":4,"coordinates":{"latitude":39.95313,"longitude":-75.21878},"transactions":["delivery","pickup"],"price":"$$","location":{"address1":"310 S 48th St","address2":"","address3":"","city":"Philadelphia","zip_code":"19143","country":"US","state":"PA","display_address":["310 S 48th St","Philadelphia, PA 19143"]},"phone":"+12159393298","display_phone":"(215) 939-3298"},{"id":"DVcUOGr69wMY8-8n32KqsQ","alias":"audreys-caribbean-kitchen-philadelphia","name":"Audrey's Caribbean Kitchen","image_url":"","is_closed":false,"url":"https://www.yelp.com/biz/audreys-caribbean-kitchen-philadelphia?adjust_creative=yF-muq-4vG-V-hKgmMcRvQ&utm_campaign=yelp_api_v3&utm_medium=api_v3_phone_search&utm_source=yF-muq-4vG-V-hKgmMcRvQ","review_count":5,"categories":[{"alias":"caribbean","title":"Caribbean"}],"rating":4,"coordinates":{"latitude":40.0639,"longitude":-75.15244},"transactions":["delivery"],"location":{"address1":"7169 Ogontz Ave","address2":null,"address3":"","city":"Philadelphia","zip_code":"19138","country":"US","state":"PA","display_address":["7169 Ogontz Ave","Philadelphia, PA 19138"]},"phone":"+12152245000","display_phone":"(215) 224-5000"},{"id":"UhqHf5V3_jJ1TNu_PSMcKg","alias":"aunties-biscuits-philadelphia","name":"Aunties Biscuits","image_url":"https://s3-media0.fl.yelpcdn.com/bphoto/X-r0I0IG6wPIvVZGDYhaHA/o.jpg","is_closed":false,"url":"https://www.yelp.com/biz/aunties-biscuits-philadelphia?adjust_creative=yF-muq-4vG-V-hKgmMcRvQ&utm_campaign=yelp_api_v3&utm_medium=api_v3_phone_search&utm_source=yF-muq-4vG-V-hKgmMcRvQ","review_count":18,"categories":[{"alias":"breakfast_brunch","title":"Breakfast & Brunch"},{"alias":"tradamerican","title":"American (Traditional)"}],"rating":4.5,"coordinates":{"latitude":40.05168,"longitude":-75.15651},"transactions":["pickup","delivery"],"location":{"address1":"2126 E Chelten Ave","address2":null,"address3":"","city":"Philadelphia","zip_code":"19138","country":"US","state":"PA","display_address":["2126 E Chelten Ave","Philadelphia, PA 19138"]},"phone":"+12677482400","display_phone":"(267) 748-2400"},{"id":"4nEajRJlnTsgWlvACOX6qg","alias":"banana-mousse-philadelphia-2","name":"Banana Mousse","image_url":"https://s3-media0.fl.yelpcdn.com/bphoto/Fgk1hObH5MCyZNXqu8oruA/o.jpg","is_closed":false,"url":"https://www.yelp.com/biz/banana-mousse-philadelphia-2?adjust_creative=yF-muq-4vG-V-hKgmMcRvQ&utm_campaign=yelp_api_v3&utm_medium=api_v3_phone_search&utm_source=yF-muq-4vG-V-hKgmMcRvQ","review_count":15,"categories":[{"alias":"desserts","title":"Desserts"},{"alias":"icecream","title":"Ice Cream & Frozen Yogurt"}],"rating":3,"coordinates":{"latitude":39.9554637,"longitude":-75.2342304},"transactions":["delivery","pickup"],"price":"$","location":{"address1":"5602 Spruce St","address2":null,"address3":null,"city":"Philadelphia","zip_code":"19139","country":"US","state":"PA","display_address":["5602 Spruce St","Philadelphia, PA 19139"]},"phone":"+16104009808","display_phone":"(610) 400-9808"},{"id":"g2N6F_ScrC09om7iNFS4dQ","alias":"29th-street-grille-philadelphia","name":"29th Street Grille","image_url":"","is_closed":true,"url":"https://www.yelp.com/biz/29th-street-grille-philadelphia?adjust_creative=yF-muq-4vG-V-hKgmMcRvQ&utm_campaign=yelp_api_v3&utm_medium=api_v3_phone_search&utm_source=yF-muq-4vG-V-hKgmMcRvQ","review_count":2,"categories":[{"alias":"bbq","title":"Barbeque"}],"rating":5,"coordinates":{"latitude":39.9869537353516,"longitude":-75.1805267333984},"transactions":[],"price":"$","location":{"address1":"2017 N 29th St","address2":"","address3":"","city":"Philadelphia","zip_code":"19121","country":"US","state":"PA","display_address":["2017 N 29th St","Philadelphia, PA 19121"]},"phone":"+12157637427","display_phone":"(215) 763-7427"},{"id":"7vSahcMGVWAra7M1RkwH0Q","alias":"big-boyz-philadelphia","name":"Big Boyz","image_url":"https://s3-media0.fl.yelpcdn.com/bphoto/Py4FhAifQ2d7l9Z59npOBA/o.jpg","is_closed":false,"url":"https://www.yelp.com/biz/big-boyz-philadelphia?adjust_creative=yF-muq-4vG-V-hKgmMcRvQ&utm_campaign=yelp_api_v3&utm_medium=api_v3_phone_search&utm_source=yF-muq-4vG-V-hKgmMcRvQ","review_count":15,"categories":[{"alias":"soulfood","title":"Soul Food"},{"alias":"breakfast_brunch","title":"Breakfast & Brunch"}],"rating":3.5,"coordinates":{"latitude":40.0514593,"longitude":-75.0667739},"transactions":["delivery","pickup"],"location":{"address1":"1940 Cottman Ave","address2":null,"address3":"","city":"Philadelphia","zip_code":"19111","country":"US","state":"PA","display_address":["1940 Cottman Ave","Philadelphia, PA 19111"]},"phone":"+12676868758","display_phone":"(267) 686-8758"},{"id":"70STxTke5G_Y5e-W9xcGdw","alias":"big-gs-chicken-shack-philadelphia","name":"Big G's Chicken Shack","image_url":"https://s3-media0.fl.yelpcdn.com/bphoto/GCLaD8EJ9HqvjqhV2YPDoA/o.jpg","is_closed":false,"url":"https://www.yelp.com/biz/big-gs-chicken-shack-philadelphia?adjust_creative=yF-muq-4vG-V-hKgmMcRvQ&utm_campaign=yelp_api_v3&utm_medium=api_v3_phone_search&utm_source=yF-muq-4vG-V-hKgmMcRvQ","review_count":14,"categories":[{"alias":"chickenshop","title":"Chicken Shop"}],"rating":3,"coordinates":{"latitude":39.9556169318125,"longitude":-75.2255039289594},"transactions":["delivery","pickup"],"location":{"address1":"5148 Locust St","address2":"","address3":null,"city":"Philadelphia","zip_code":"19139","country":"US","state":"PA","display_address":["5148 Locust St","Philadelphia, PA 19139"]},"phone":"+14458883408","display_phone":"(445) 888-3408"},{"id":"I5VaCMPAYI-wxmK3LJ0a8g","alias":"bistro-870-philadelphia-2","name":"Bistro 870","image_url":"https://s3-media0.fl.yelpcdn.com/bphoto/aB-fJL1rQ00c2wO-nDMHlA/o.jpg","is_closed":false,"url":"https://www.yelp.com/biz/bistro-870-philadelphia-2?adjust_creative=yF-muq-4vG-V-hKgmMcRvQ&utm_campaign=yelp_api_v3&utm_medium=api_v3_phone_search&utm_source=yF-muq-4vG-V-hKgmMcRvQ","review_count":1,"categories":[{"alias":"catering","title":"Caterers"}],"rating":5,"coordinates":{"latitude":39.9710204335579,"longitude":-75.24111707869},"transactions":[],"location":{"address1":"6104 Haverford Ave","address2":null,"address3":"","city":"Philadelphia","zip_code":"19151","country":"US","state":"PA","display_address":["6104 Haverford Ave","Philadelphia, PA 19151"]},"phone":"+12678441512","display_phone":"(267) 844-1512"},{"id":"RaK2NlWb8RV3xckcug_TJg","alias":"black-seed-cafe-philadelphia","name":"Black Seed Cafe","image_url":"","is_closed":false,"url":"https://www.yelp.com/biz/black-seed-cafe-philadelphia?adjust_creative=yF-muq-4vG-V-hKgmMcRvQ&utm_campaign=yelp_api_v3&utm_medium=api_v3_phone_search&utm_source=yF-muq-4vG-V-hKgmMcRvQ","review_count":3,"categories":[{"alias":"breakfast_brunch","title":"Breakfast & Brunch"},{"alias":"burgers","title":"Burgers"},{"alias":"cafes","title":"Cafes"}],"rating":5,"coordinates":{"latitude":39.93815,"longitude":-75.18363},"transactions":[],"location":{"address1":"2400 Federal St","address2":"","address3":null,"city":"Philadelphia","zip_code":"19146","country":"US","state":"PA","display_address":["2400 Federal St","Philadelphia, PA 19146"]},"phone":"+12155441235","display_phone":"(215) 544-1235"},{"id":"t3PkHzVTvPA8qRxKe9TIkQ","alias":"bookers-restaurant-and-bar-philadelphia-3","name":"Booker's Restaurant and Bar","image_url":"https://s3-media0.fl.yelpcdn.com/bphoto/dXqUSQpmAzzsYg64gVVHRg/o.jpg","is_closed":false,"url":"https://www.yelp.com/biz/bookers-restaurant-and-bar-philadelphia-3?adjust_creative=yF-muq-4vG-V-hKgmMcRvQ&utm_campaign=yelp_api_v3&utm_medium=api_v3_phone_search&utm_source=yF-muq-4vG-V-hKgmMcRvQ","review_count":199,"categories":[{"alias":"bars","title":"Bars"},{"alias":"tapasmallplates","title":"Tapas/Small Plates"},{"alias":"breakfast_brunch","title":"Breakfast & Brunch"}],"rating":3.5,"coordinates":{"latitude":39.94808,"longitude":-75.22425},"transactions":["delivery"],"price":"$$","location":{"address1":"5021 Baltimore Ave","address2":null,"address3":"","city":"Philadelphia","zip_code":"19143","country":"US","state":"PA","display_address":["5021 Baltimore Ave","Philadelphia, PA 19143"]},"phone":"+12158830960","display_phone":"(215) 883-0960"},{"id":"4vy8j-L9zXXFH_wh2sVzAw","alias":"bower-cafe-philadelphia-2","name":"Bower Cafe","image_url":"https://s3-media0.fl.yelpcdn.com/bphoto/0QztAca4pUqTdS_hK87EIg/o.jpg","is_closed":false,"url":"https://www.yelp.com/biz/bower-cafe-philadelphia-2?adjust_creative=yF-muq-4vG-V-hKgmMcRvQ&utm_campaign=yelp_api_v3&utm_medium=api_v3_phone_search&utm_source=yF-muq-4vG-V-hKgmMcRvQ","review_count":32,"categories":[{"alias":"coffee","title":"Coffee & Tea"},{"alias":"cafes","title":"Cafes"}],"rating":4.5,"coordinates":{"latitude":39.946556,"longitude":-75.157584},"transactions":["delivery"],"location":{"address1":"263 S 10th St","address2":"","address3":null,"city":"Philadelphia","zip_code":"19107","country":"US","state":"PA","display_address":["263 S 10th St","Philadelphia, PA 19107"]},"phone":"+12677585536","display_phone":"(267) 758-5536"},{"id":"MCONblFmdE6NdZWN-BoDpQ","alias":"the-breakfast-boutique-2-philadelphia","name":"The Breakfast Boutique 2","image_url":"https://s3-media0.fl.yelpcdn.com/bphoto/nu8gEyFFGaiUtkzLXtKnjg/o.jpg","is_closed":false,"url":"https://www.yelp.com/biz/the-breakfast-boutique-2-philadelphia?adjust_creative=yF-muq-4vG-V-hKgmMcRvQ&utm_campaign=yelp_api_v3&utm_medium=api_v3_phone_search&utm_source=yF-muq-4vG-V-hKgmMcRvQ","review_count":59,"categories":[{"alias":"breakfast_brunch","title":"Breakfast & Brunch"},{"alias":"burgers","title":"Burgers"},{"alias":"sandwiches","title":"Sandwiches"}],"rating":3,"coordinates":{"latitude":40.0436392302624,"longitude":-75.1436618201943},"transactions":["pickup","delivery"],"price":"$$","location":{"address1":"5917 N Broad St","address2":"","address3":"","city":"Philadelphia","zip_code":"19141","country":"US","state":"PA","display_address":["5917 N Broad St","Philadelphia, PA 19141"]},"phone":"+12673316045","display_phone":"(267) 331-6045"},{"id":"PvT44WlqJLkUrCITo6AjRA","alias":"breakfast-boutique-chestnut-hill-philadelphia","name":"Breakfast Boutique Chestnut Hill","image_url":"https://s3-media0.fl.yelpcdn.com/bphoto/USH2J7eAThc7LoTAKUzSRA/o.jpg","is_closed":false,"url":"https://www.yelp.com/biz/breakfast-boutique-chestnut-hill-philadelphia?adjust_creative=yF-muq-4vG-V-hKgmMcRvQ&utm_campaign=yelp_api_v3&utm_medium=api_v3_phone_search&utm_source=yF-muq-4vG-V-hKgmMcRvQ","review_count":126,"categories":[{"alias":"breakfast_brunch","title":"Breakfast & Brunch"}],"rating":3.5,"coordinates":{"latitude":40.0771492175837,"longitude":-75.2087070075534},"transactions":["delivery","pickup"],"price":"$$","location":{"address1":"8630 Germantown Ave","address2":"","address3":null,"city":"Philadelphia","zip_code":"19118","country":"US","state":"PA","display_address":["8630 Germantown Ave","Philadelphia, PA 19118"]},"phone":"+12156217796","display_phone":"(215) 621-7796"},{"id":"7YsrfPONeC5VC-n5N1gb5w","alias":"the-breakfast-boutique-philadelphia","name":"The Breakfast Boutique","image_url":"https://s3-media0.fl.yelpcdn.com/bphoto/kP0DzjXDhbi9OKQz2yNaaA/o.jpg","is_closed":true,"url":"https://www.yelp.com/biz/the-breakfast-boutique-philadelphia?adjust_creative=yF-muq-4vG-V-hKgmMcRvQ&utm_campaign=yelp_api_v3&utm_medium=api_v3_phone_search&utm_source=yF-muq-4vG-V-hKgmMcRvQ","review_count":137,"categories":[{"alias":"breakfast_brunch","title":"Breakfast & Brunch"}],"rating":4,"coordinates":{"latitude":40.0587,"longitude":-75.14983},"transactions":["delivery"],"price":"$","location":{"address1":"6830 Ogontz Ave","address2":"","address3":"","city":"Philadelphia","zip_code":"19138","country":"US","state":"PA","display_address":["6830 Ogontz Ave","Philadelphia, PA 19138"]},"phone":"+12674372884","display_phone":"(267) 437-2884"},{"id":"jFAj4ZTHKukcEnFZXz2DiA","alias":"hip-hemp-cafe-philadelphia","name":"Hip Hemp Cafe","image_url":"https://s3-media0.fl.yelpcdn.com/bphoto/qbWtvtqs9Zp37PWlJiK8gQ/o.jpg","is_closed":false,"url":"https://www.yelp.com/biz/hip-hemp-cafe-philadelphia?adjust_creative=yF-muq-4vG-V-hKgmMcRvQ&utm_campaign=yelp_api_v3&utm_medium=api_v3_phone_search&utm_source=yF-muq-4vG-V-hKgmMcRvQ","review_count":9,"categories":[{"alias":"coffee","title":"Coffee & Tea"},{"alias":"massage","title":"Massage"}],"rating":5,"coordinates":{"latitude":39.94191,"longitude":-75.15372},"transactions":[],"location":{"address1":"607 S 7th St","address2":null,"address3":"","city":"Philadelphia","zip_code":"19147","country":"US","state":"PA","display_address":["607 S 7th St","Philadelphia, PA 19147"]},"phone":"+12677586534","display_phone":"(267) 758-6534"},{"id":"4LkQ65dWQiRWfYihguKqOQ","alias":"tilden-food-market-philadelphia","name":"Tilden Food Market","image_url":"https://s3-media0.fl.yelpcdn.com/bphoto/XAE_TAasInDNleO-GJdjRg/o.jpg","is_closed":false,"url":"https://www.yelp.com/biz/tilden-food-market-philadelphia?adjust_creative=yF-muq-4vG-V-hKgmMcRvQ&utm_campaign=yelp_api_v3&utm_medium=api_v3_phone_search&utm_source=yF-muq-4vG-V-hKgmMcRvQ","review_count":14,"categories":[{"alias":"grocery","title":"Grocery"}],"rating":2.5,"coordinates":{"latitude":40.01436,"longitude":-75.1882399},"transactions":[],"price":"$$","location":{"address1":"3539 Vaux St","address2":"","address3":"","city":"Philadelphia","zip_code":"19129","country":"US","state":"PA","display_address":["3539 Vaux St","Philadelphia, PA 19129"]},"phone":"+12154387600","display_phone":"(215) 438-7600"},{"id":"2CvbV_ChCveXzg076b4TMA","alias":"v-marks-the-shop-philadelphia-2","name":"V Marks the Shop","image_url":"https://s3-media0.fl.yelpcdn.com/bphoto/uGiVjbs2H2nzV55Mx_delw/o.jpg","is_closed":false,"url":"https://www.yelp.com/biz/v-marks-the-shop-philadelphia-2?adjust_creative=yF-muq-4vG-V-hKgmMcRvQ&utm_campaign=yelp_api_v3&utm_medium=api_v3_phone_search&utm_source=yF-muq-4vG-V-hKgmMcRvQ","review_count":12,"categories":[{"alias":"convenience","title":"Convenience Stores"},{"alias":"grocery","title":"Grocery"},{"alias":"gourmet","title":"Specialty Food"}],"rating":5,"coordinates":{"latitude":39.92604,"longitude":-75.17172},"transactions":[],"location":{"address1":"1515 McKean St","address2":null,"address3":"","city":"Philadelphia","zip_code":"19145","country":"US","state":"PA","display_address":["1515 McKean St","Philadelphia, PA 19145"]},"phone":"+14848431834","display_phone":"(484) 843-1834"},{"id":"-3N6Eq1X-o8XxmGRq4-viA","alias":"brotherly-grub-philadelphia-6","name":"Brotherly Grub","image_url":"https://s3-media0.fl.yelpcdn.com/bphoto/XpZG53Y-5I1HWmWdgkmb0w/o.jpg","is_closed":false,"url":"https://www.yelp.com/biz/brotherly-grub-philadelphia-6?adjust_creative=yF-muq-4vG-V-hKgmMcRvQ&utm_campaign=yelp_api_v3&utm_medium=api_v3_phone_search&utm_source=yF-muq-4vG-V-hKgmMcRvQ","review_count":7,"categories":[{"alias":"foodtrucks","title":"Food Trucks"},{"alias":"sandwiches","title":"Sandwiches"}],"rating":4.5,"coordinates":{"latitude":40.059435,"longitude":-75.190195},"transactions":[],"price":"$","location":{"address1":"7135 Germantown Ave","address2":"","address3":"","city":"Philadelphia","zip_code":"19104","country":"US","state":"PA","display_address":["7135 Germantown Ave","Philadelphia, PA 19104"]},"phone":"+12673202675","display_phone":"(267) 320-2675"},{"id":"_T0cPZE2ZJOTTlYYKMP64Q","alias":"brown-sugar-bakery-and-cafe-philadelphia","name":"Brown Sugar Bakery & Cafe","image_url":"https://s3-media0.fl.yelpcdn.com/bphoto/6ZgVm7_Kcoa6gCm9EFUEhQ/o.jpg","is_closed":false,"url":"https://www.yelp.com/biz/brown-sugar-bakery-and-cafe-philadelphia?adjust_creative=yF-muq-4vG-V-hKgmMcRvQ&utm_campaign=yelp_api_v3&utm_medium=api_v3_phone_search&utm_source=yF-muq-4vG-V-hKgmMcRvQ","review_count":59,"categories":[{"alias":"bakeries","title":"Bakeries"},{"alias":"cafes","title":"Cafes"},{"alias":"cupcakes","title":"Cupcakes"}],"rating":4.5,"coordinates":{"latitude":39.9564,"longitude":-75.22535},"transactions":["delivery"],"price":"$","location":{"address1":"219 S 52nd St","address2":"","address3":"","city":"Philadelphia","zip_code":"19139","country":"US","state":"PA","display_address":["219 S 52nd St","Philadelphia, PA 19139"]},"phone":"+12154727380","display_phone":"(215) 472-7380"},{"id":"B6qHZCAs7Nka-1zdjCzAIQ","alias":"butters-soul-food-philadelphia-2","name":"Butter's Soul Food","image_url":"https://s3-media0.fl.yelpcdn.com/bphoto/kyg073tulHNSK_uyJuf0tw/o.jpg","is_closed":false,"url":"https://www.yelp.com/biz/butters-soul-food-philadelphia-2?adjust_creative=yF-muq-4vG-V-hKgmMcRvQ&utm_campaign=yelp_api_v3&utm_medium=api_v3_phone_search&utm_source=yF-muq-4vG-V-hKgmMcRvQ","review_count":67,"categories":[{"alias":"soulfood","title":"Soul Food"}],"rating":3,"coordinates":{"latitude":39.9741134643555,"longitude":-75.1815643310547},"transactions":["delivery"],"price":"$$","location":{"address1":"2730 W Girard Ave","address2":"","address3":"","city":"Philadelphia","zip_code":"19130","country":"US","state":"PA","display_address":["2730 W Girard Ave","Philadelphia, PA 19130"]},"phone":"+12152354724","display_phone":"(215) 235-4724"},{"id":"ANbQwZEtt-b2JeEruRPi2A","alias":"buutchiis-grille-ambler","name":"Buutchiis Grille","image_url":"https://s3-media0.fl.yelpcdn.com/bphoto/KxwKeTffX0KQGDpQ7vputw/o.jpg","is_closed":false,"url":"https://www.yelp.com/biz/buutchiis-grille-ambler?adjust_creative=yF-muq-4vG-V-hKgmMcRvQ&utm_campaign=yelp_api_v3&utm_medium=api_v3_phone_search&utm_source=yF-muq-4vG-V-hKgmMcRvQ","review_count":73,"categories":[{"alias":"african","title":"African"},{"alias":"caribbean","title":"Caribbean"}],"rating":4.5,"coordinates":{"latitude":40.1542605,"longitude":-75.2228739},"transactions":["delivery"],"location":{"address1":"35 E Butler Ave","address2":null,"address3":"","city":"Ambler","zip_code":"19002","country":"US","state":"PA","display_address":["35 E Butler Ave","Ambler, PA 19002"]},"phone":"+12156430631","display_phone":"(215) 643-0631"},{"id":"fGoVUonpgaeoAenfc3mVzg","alias":"callowhill-greens-philadelphia-7","name":"Callowhill Greens","image_url":"https://s3-media0.fl.yelpcdn.com/bphoto/L5LImVknMrnQT0_yVS4n3Q/o.jpg","is_closed":false,"url":"https://www.yelp.com/biz/callowhill-greens-philadelphia-7?adjust_creative=yF-muq-4vG-V-hKgmMcRvQ&utm_campaign=yelp_api_v3&utm_medium=api_v3_phone_search&utm_source=yF-muq-4vG-V-hKgmMcRvQ","review_count":6,"categories":[{"alias":"coffee","title":"Coffee & Tea"},{"alias":"juicebars","title":"Juice Bars & Smoothies"},{"alias":"breakfast_brunch","title":"Breakfast & Brunch"}],"rating":3.5,"coordinates":{"latitude":39.96021,"longitude":-75.16861},"transactions":["delivery","pickup"],"location":{"address1":"1800 Callowhill St","address2":null,"address3":"","city":"Philadelphia","zip_code":"19130","country":"US","state":"PA","display_address":["1800 Callowhill St","Philadelphia, PA 19130"]},"phone":"+16106158605","display_phone":"(610) 615-8605"},{"id":"UEh4Jqc29tHs1TEgX9UTxA","alias":"caredas-caribbean-cuisine-philadelphia","name":"Careda's Caribbean Cuisine","image_url":"https://s3-media0.fl.yelpcdn.com/bphoto/6iD14uzk91TJXX4JTXXdvg/o.jpg","is_closed":false,"url":"https://www.yelp.com/biz/caredas-caribbean-cuisine-philadelphia?adjust_creative=yF-muq-4vG-V-hKgmMcRvQ&utm_campaign=yelp_api_v3&utm_medium=api_v3_phone_search&utm_source=yF-muq-4vG-V-hKgmMcRvQ","review_count":14,"categories":[{"alias":"caribbean","title":"Caribbean"}],"rating":3.5,"coordinates":{"latitude":39.953194,"longitude":-75.159407},"transactions":[],"location":{"address1":"51 north 12th street","address2":null,"address3":null,"city":"Philadelphia","zip_code":"19107","country":"US","state":"PA","display_address":["51 north 12th street","Philadelphia, PA 19107"]},"phone":"+12675921446","display_phone":"(267) 592-1446"},{"id":"IW5nVwCmmhL6cENHTst2og","alias":"caribbean-delight-philadelphia","name":"Caribbean Delight","image_url":"https://s3-media0.fl.yelpcdn.com/bphoto/c5zWohLQ3Y7AqERbZHOzSA/o.jpg","is_closed":false,"url":"https://www.yelp.com/biz/caribbean-delight-philadelphia?adjust_creative=yF-muq-4vG-V-hKgmMcRvQ&utm_campaign=yelp_api_v3&utm_medium=api_v3_phone_search&utm_source=yF-muq-4vG-V-hKgmMcRvQ","review_count":65,"categories":[{"alias":"caribbean","title":"Caribbean"}],"rating":4,"coordinates":{"latitude":39.9429434,"longitude":-75.1610111},"transactions":["delivery","pickup"],"price":"$$","location":{"address1":"1124 South St","address2":"","address3":"","city":"Philadelphia","zip_code":"19147","country":"US","state":"PA","display_address":["1124 South St","Philadelphia, PA 19147"]},"phone":"+12158291030","display_phone":"(215) 829-1030"},{"id":"sSECFLujBecuFCbt8c0KyA","alias":"caribbean-palm-philadelphia","name":"Caribbean Palm","image_url":"https://s3-media0.fl.yelpcdn.com/bphoto/qMt4faP--924YBxCNzJZ2w/o.jpg","is_closed":false,"url":"https://www.yelp.com/biz/caribbean-palm-philadelphia?adjust_creative=yF-muq-4vG-V-hKgmMcRvQ&utm_campaign=yelp_api_v3&utm_medium=api_v3_phone_search&utm_source=yF-muq-4vG-V-hKgmMcRvQ","review_count":19,"categories":[{"alias":"soulfood","title":"Soul Food"},{"alias":"caribbean","title":"Caribbean"},{"alias":"streetvendors","title":"Street Vendors"}],"rating":3.5,"coordinates":{"latitude":39.9587516784668,"longitude":-75.1688003540039},"transactions":[],"price":"$","location":{"address1":"2-32 N 18th St","address2":"","address3":"","city":"Philadelphia","zip_code":"19103","country":"US","state":"PA","display_address":["2-32 N 18th St","Philadelphia, PA 19103"]},"phone":"+12674740184","display_phone":"(267) 474-0184"},{"id":"WzbKilRpbcblgv38AV58eA","alias":"the-cheesecake-lady-elkins-park","name":"The Cheesecake Lady","image_url":"https://s3-media0.fl.yelpcdn.com/bphoto/QZFa9afTID41oAYt0DpYvg/o.jpg","is_closed":false,"url":"https://www.yelp.com/biz/the-cheesecake-lady-elkins-park?adjust_creative=yF-muq-4vG-V-hKgmMcRvQ&utm_campaign=yelp_api_v3&utm_medium=api_v3_phone_search&utm_source=yF-muq-4vG-V-hKgmMcRvQ","review_count":83,"categories":[{"alias":"desserts","title":"Desserts"}],"rating":5,"coordinates":{"latitude":40.081378,"longitude":-75.117549},"transactions":["pickup","delivery"],"price":"$$","location":{"address1":"910 Township Line Rd","address2":null,"address3":"","city":"Elkins Park","zip_code":"19027","country":"US","state":"PA","display_address":["910 Township Line Rd","Elkins Park, PA 19027"]},"phone":"+12675753952","display_phone":"(267) 575-3952"},{"id":"Y7asEgUrJc3W9vD7wxEnQg","alias":"rhythm-and-brunch-philadelphia","name":"Rhythm and Brunch","image_url":"https://s3-media0.fl.yelpcdn.com/bphoto/WnqfIR78fXzkZpFgYZ9iOQ/o.jpg","is_closed":false,"url":"https://www.yelp.com/biz/rhythm-and-brunch-philadelphia?adjust_creative=yF-muq-4vG-V-hKgmMcRvQ&utm_campaign=yelp_api_v3&utm_medium=api_v3_phone_search&utm_source=yF-muq-4vG-V-hKgmMcRvQ","review_count":99,"categories":[{"alias":"newamerican","title":"American (New)"},{"alias":"breakfast_brunch","title":"Breakfast & Brunch"}],"rating":4,"coordinates":{"latitude":39.9219015059064,"longitude":-75.2311522531672},"transactions":["delivery","pickup"],"price":"$$","location":{"address1":"6517 Elmwood Ave","address2":"","address3":null,"city":"Philadelphia","zip_code":"19142","country":"US","state":"PA","display_address":["6517 Elmwood Ave","Philadelphia, PA 19142"]},"phone":"+12159219915","display_phone":"(215) 921-9915"},{"id":"pCn8Bz3IdFyUOyDQky7t5Q","alias":"chick-a-boom-folcroft","name":"Chick-A-Boom","image_url":"https://s3-media0.fl.yelpcdn.com/bphoto/ci_oX6Q6YOxH6xcxnborVQ/o.jpg","is_closed":false,"url":"https://www.yelp.com/biz/chick-a-boom-folcroft?adjust_creative=yF-muq-4vG-V-hKgmMcRvQ&utm_campaign=yelp_api_v3&utm_medium=api_v3_phone_search&utm_source=yF-muq-4vG-V-hKgmMcRvQ","review_count":14,"categories":[{"alias":"chickenshop","title":"Chicken Shop"}],"rating":5,"coordinates":{"latitude":39.890319,"longitude":-75.285167},"transactions":[],"location":{"address1":"1946 Delmar Dr","address2":null,"address3":"","city":"Folcroft","zip_code":"19032","country":"US","state":"PA","display_address":["1946 Delmar Dr","Folcroft, PA 19032"]},"phone":"+14844941177","display_phone":"(484) 494-1177"},{"id":"h-cUfr_s3U7XP2DpPkoJqg","alias":"saudia-shulers-country-cookin-philadelphia","name":"Saudia Shuler's Country Cookin'","image_url":"https://s3-media0.fl.yelpcdn.com/bphoto/CIL-c6shiItvLl7eAveKwQ/o.jpg","is_closed":false,"url":"https://www.yelp.com/biz/saudia-shulers-country-cookin-philadelphia?adjust_creative=yF-muq-4vG-V-hKgmMcRvQ&utm_campaign=yelp_api_v3&utm_medium=api_v3_phone_search&utm_source=yF-muq-4vG-V-hKgmMcRvQ","review_count":133,"categories":[{"alias":"soulfood","title":"Soul Food"}],"rating":3.5,"coordinates":{"latitude":39.99811,"longitude":-75.1673},"transactions":["delivery"],"price":"$$","location":{"address1":"2836 N 22nd St","address2":"","address3":"","city":"Philadelphia","zip_code":"19132","country":"US","state":"PA","display_address":["2836 N 22nd St","Philadelphia, PA 19132"]},"phone":"+12676253664","display_phone":"(267) 625-3664"},{"id":"CczaLGn5dIbkiZ66tlz5-Q","alias":"crafty-soul-philadelphia-2","name":"Crafty Soul","image_url":"https://s3-media0.fl.yelpcdn.com/bphoto/bxsmnRcWHnqpSgUCVBVTOQ/o.jpg","is_closed":false,"url":"https://www.yelp.com/biz/crafty-soul-philadelphia-2?adjust_creative=yF-muq-4vG-V-hKgmMcRvQ&utm_campaign=yelp_api_v3&utm_medium=api_v3_phone_search&utm_source=yF-muq-4vG-V-hKgmMcRvQ","review_count":25,"categories":[{"alias":"soulfood","title":"Soul Food"}],"rating":3.5,"coordinates":{"latitude":39.97081,"longitude":-75.21422},"transactions":["pickup","delivery"],"location":{"address1":"4617 Lancaster Ave","address2":null,"address3":null,"city":"Philadelphia","zip_code":"19131","country":"US","state":"PA","display_address":["4617 Lancaster Ave","Philadelphia, PA 19131"]},"phone":"+12159215598","display_phone":"(215) 921-5598"},{"id":"tTzXJ9oXZCCL3Wip6dEoTQ","alias":"the-crimson-cafe-philadelphia","name":"The Crimson Cafe","image_url":"https://s3-media0.fl.yelpcdn.com/bphoto/mW3TLxhyiZNxv0UTvDg1Nw/o.jpg","is_closed":false,"url":"https://www.yelp.com/biz/the-crimson-cafe-philadelphia?adjust_creative=yF-muq-4vG-V-hKgmMcRvQ&utm_campaign=yelp_api_v3&utm_medium=api_v3_phone_search&utm_source=yF-muq-4vG-V-hKgmMcRvQ","review_count":13,"categories":[{"alias":"southern","title":"Southern"},{"alias":"soulfood","title":"Soul Food"}],"rating":4,"coordinates":{"latitude":39.9619140625,"longitude":-75.2384033203125},"transactions":["delivery"],"price":"$","location":{"address1":"5847 Market St","address2":"","address3":"","city":"Philadelphia","zip_code":"19139","country":"US","state":"PA","display_address":["5847 Market St","Philadelphia, PA 19139"]},"phone":"+12154722233","display_phone":"(215) 472-2233"},{"id":"jIaycjmFK6ZecPx-tMR43A","alias":"dahlak-philadelphia-2","name":"Dahlak","image_url":"https://s3-media0.fl.yelpcdn.com/bphoto/rZOHkasKrQ4APcBJRy_6SQ/o.jpg","is_closed":false,"url":"https://www.yelp.com/biz/dahlak-philadelphia-2?adjust_creative=yF-muq-4vG-V-hKgmMcRvQ&utm_campaign=yelp_api_v3&utm_medium=api_v3_phone_search&utm_source=yF-muq-4vG-V-hKgmMcRvQ","review_count":154,"categories":[{"alias":"ethiopian","title":"Ethiopian"},{"alias":"divebars","title":"Dive Bars"}],"rating":3.5,"coordinates":{"latitude":39.9483871459961,"longitude":-75.2173614501953},"transactions":["pickup"],"price":"$$","location":{"address1":"4708 Baltimore Ave","address2":"","address3":"","city":"Philadelphia","zip_code":"19143","country":"US","state":"PA","display_address":["4708 Baltimore Ave","Philadelphia, PA 19143"]},"phone":"+12157266464","display_phone":"(215) 726-6464"},{"id":"THDT2sGR0efmkqGz6PFkEg","alias":"deborahs-kitchen-philadelphia","name":"Deborah's Kitchen","image_url":"https://s3-media0.fl.yelpcdn.com/bphoto/-k8e7P67ozlCgjNXjtiwew/o.jpg","is_closed":false,"url":"https://www.yelp.com/biz/deborahs-kitchen-philadelphia?adjust_creative=yF-muq-4vG-V-hKgmMcRvQ&utm_campaign=yelp_api_v3&utm_medium=api_v3_phone_search&utm_source=yF-muq-4vG-V-hKgmMcRvQ","review_count":8,"categories":[{"alias":"soulfood","title":"Soul Food"}],"rating":4,"coordinates":{"latitude":39.9737815856934,"longitude":-75.1792449951172},"transactions":["delivery"],"price":"$$","location":{"address1":"2608 Girard Ave","address2":"","address3":"","city":"Philadelphia","zip_code":"19130","country":"US","state":"PA","display_address":["2608 Girard Ave","Philadelphia, PA 19130"]},"phone":"+12157633327","display_phone":"(215) 763-3327"},{"id":"fz9ymU6xguSAdVjSdHBLDg","alias":"denises-delicacies-philadelphia","name":"Denise's Delicacies","image_url":"https://s3-media0.fl.yelpcdn.com/bphoto/CYvRPD2QLmzdIPJB-9OxIg/o.jpg","is_closed":false,"url":"https://www.yelp.com/biz/denises-delicacies-philadelphia?adjust_creative=yF-muq-4vG-V-hKgmMcRvQ&utm_campaign=yelp_api_v3&utm_medium=api_v3_phone_search&utm_source=yF-muq-4vG-V-hKgmMcRvQ","review_count":64,"categories":[{"alias":"bakeries","title":"Bakeries"}],"rating":4,"coordinates":{"latitude":39.99918,"longitude":-75.16706},"transactions":[],"price":"$$","location":{"address1":"2916 N 22nd St","address2":"","address3":"","city":"Philadelphia","zip_code":"19132","country":"US","state":"PA","display_address":["2916 N 22nd St","Philadelphia, PA 19132"]},"phone":"+12152255425","display_phone":"(215) 225-5425"},{"id":"PvT44WlqJLkUrCITo6AjRA","alias":"breakfast-boutique-chestnut-hill-philadelphia","name":"Breakfast Boutique Chestnut Hill","image_url":"https://s3-media0.fl.yelpcdn.com/bphoto/USH2J7eAThc7LoTAKUzSRA/o.jpg","is_closed":false,"url":"https://www.yelp.com/biz/breakfast-boutique-chestnut-hill-philadelphia?adjust_creative=yF-muq-4vG-V-hKgmMcRvQ&utm_campaign=yelp_api_v3&utm_medium=api_v3_phone_search&utm_source=yF-muq-4vG-V-hKgmMcRvQ","review_count":126,"categories":[{"alias":"breakfast_brunch","title":"Breakfast & Brunch"}],"rating":3.5,"coordinates":{"latitude":40.0771492175837,"longitude":-75.2087070075534},"transactions":["delivery","pickup"],"price":"$$","location":{"address1":"8630 Germantown Ave","address2":"","address3":null,"city":"Philadelphia","zip_code":"19118","country":"US","state":"PA","display_address":["8630 Germantown Ave","Philadelphia, PA 19118"]},"phone":"+12156217796","display_phone":"(215) 621-7796"},{"id":"MCONblFmdE6NdZWN-BoDpQ","alias":"the-breakfast-boutique-2-philadelphia","name":"The Breakfast Boutique 2","image_url":"https://s3-media0.fl.yelpcdn.com/bphoto/nu8gEyFFGaiUtkzLXtKnjg/o.jpg","is_closed":false,"url":"https://www.yelp.com/biz/the-breakfast-boutique-2-philadelphia?adjust_creative=yF-muq-4vG-V-hKgmMcRvQ&utm_campaign=yelp_api_v3&utm_medium=api_v3_phone_search&utm_source=yF-muq-4vG-V-hKgmMcRvQ","review_count":59,"categories":[{"alias":"breakfast_brunch","title":"Breakfast & Brunch"},{"alias":"burgers","title":"Burgers"},{"alias":"sandwiches","title":"Sandwiches"}],"rating":3,"coordinates":{"latitude":40.0436392302624,"longitude":-75.1436618201943},"transactions":["pickup","delivery"],"price":"$$","location":{"address1":"5917 N Broad St","address2":"","address3":"","city":"Philadelphia","zip_code":"19141","country":"US","state":"PA","display_address":["5917 N Broad St","Philadelphia, PA 19141"]},"phone":"+12673316045","display_phone":"(267) 331-6045"},{"id":"dvYS0Y_RHFGyR4Q29rqm3g","alias":"dibbs-bbq-philadelphia","name":"Dibbs BBQ","image_url":"https://s3-media0.fl.yelpcdn.com/bphoto/rhu0Ks0xubLcM0toTLSgkw/o.jpg","is_closed":false,"url":"https://www.yelp.com/biz/dibbs-bbq-philadelphia?adjust_creative=yF-muq-4vG-V-hKgmMcRvQ&utm_campaign=yelp_api_v3&utm_medium=api_v3_phone_search&utm_source=yF-muq-4vG-V-hKgmMcRvQ","review_count":10,"categories":[{"alias":"bbq","title":"Barbeque"}],"rating":4.5,"coordinates":{"latitude":39.9807200010341,"longitude":-75.2344698831439},"transactions":["delivery"],"location":{"address1":"5617 Lancaster Ave","address2":"","address3":null,"city":"Philadelphia","zip_code":"19131","country":"US","state":"PA","display_address":["5617 Lancaster Ave","Philadelphia, PA 19131"]},"phone":"+12158766500","display_phone":"(215) 876-6500"},{"id":"S21Myaj831l5rG4AKEyekA","alias":"dos-tacos-philadelphia","name":"Dos Tacos","image_url":"https://s3-media0.fl.yelpcdn.com/bphoto/yl4qAfSLbHLqHYpsNaeKcQ/o.jpg","is_closed":false,"url":"https://www.yelp.com/biz/dos-tacos-philadelphia?adjust_creative=yF-muq-4vG-V-hKgmMcRvQ&utm_campaign=yelp_api_v3&utm_medium=api_v3_phone_search&utm_source=yF-muq-4vG-V-hKgmMcRvQ","review_count":258,"categories":[{"alias":"mexican","title":"Mexican"}],"rating":3,"coordinates":{"latitude":39.9505718076738,"longitude":-75.165792960935},"transactions":["delivery"],"price":"$","location":{"address1":"120 S 15th St","address2":null,"address3":"","city":"Philadelphia","zip_code":"19102","country":"US","state":"PA","display_address":["120 S 15th St","Philadelphia, PA 19102"]},"phone":"+12155678226","display_phone":"(215) 567-8226"},{"id":"ZUbyBcum99HzkLA3Z3CFQQ","alias":"eatible-delights-catering-philadelphia-4","name":"Eatible Delights Catering","image_url":"https://s3-media0.fl.yelpcdn.com/bphoto/YngX5Y5HFmg40eEwqwLCuw/o.jpg","is_closed":false,"url":"https://www.yelp.com/biz/eatible-delights-catering-philadelphia-4?adjust_creative=yF-muq-4vG-V-hKgmMcRvQ&utm_campaign=yelp_api_v3&utm_medium=api_v3_phone_search&utm_source=yF-muq-4vG-V-hKgmMcRvQ","review_count":29,"categories":[{"alias":"catering","title":"Caterers"}],"rating":3.5,"coordinates":{"latitude":40.079733,"longitude":-75.172927},"transactions":[],"location":{"address1":"1540 Wadsworth Ave","address2":"","address3":"","city":"philadelphia","zip_code":"19121","country":"US","state":"PA","display_address":["1540 Wadsworth Ave","philadelphia, PA 19121"]},"phone":"+12152363900","display_phone":"(215) 236-3900"},{"id":"bNAT7mJmjQrTNPFEWDro1Q","alias":"five-sisters-ice-cream-and-sweets-philadelphia","name":"Five Sisters Ice Cream and Sweets","image_url":"https://s3-media0.fl.yelpcdn.com/bphoto/llcKtq2OiPNcY3vBghfxUA/o.jpg","is_closed":false,"url":"https://www.yelp.com/biz/five-sisters-ice-cream-and-sweets-philadelphia?adjust_creative=yF-muq-4vG-V-hKgmMcRvQ&utm_campaign=yelp_api_v3&utm_medium=api_v3_phone_search&utm_source=yF-muq-4vG-V-hKgmMcRvQ","review_count":22,"categories":[{"alias":"desserts","title":"Desserts"},{"alias":"icecream","title":"Ice Cream & Frozen Yogurt"}],"rating":4,"coordinates":{"latitude":39.9797761,"longitude":-75.1331864},"transactions":["delivery"],"price":"$","location":{"address1":"1949 N Front St","address2":"","address3":"","city":"Philadelphia","zip_code":"19122","country":"US","state":"PA","display_address":["1949 N Front St","Philadelphia, PA 19122"]},"phone":"+12156344419","display_phone":"(215) 634-4419"},{"id":"y1HgVnt4K5owmYXC5yXLGg","alias":"flambo-caribbean-restaurant-philadelphia","name":"Flambo Caribbean Restaurant","image_url":"https://s3-media0.fl.yelpcdn.com/bphoto/lbxT6bk0a1at-Kd8-c1lLQ/o.jpg","is_closed":false,"url":"https://www.yelp.com/biz/flambo-caribbean-restaurant-philadelphia?adjust_creative=yF-muq-4vG-V-hKgmMcRvQ&utm_campaign=yelp_api_v3&utm_medium=api_v3_phone_search&utm_source=yF-muq-4vG-V-hKgmMcRvQ","review_count":113,"categories":[{"alias":"trinidadian","title":"Trinidadian"}],"rating":4.5,"coordinates":{"latitude":39.96869,"longitude":-75.16054},"transactions":["delivery","pickup"],"price":"$$","location":{"address1":"820 N Broad St","address2":null,"address3":"","city":"Philadelphia","zip_code":"19130","country":"US","state":"PA","display_address":["820 N Broad St","Philadelphia, PA 19130"]},"phone":"+12676395179","display_phone":"(267) 639-5179"},{"id":"LSGDvJrw_sWQQ9P-fFPhaQ","alias":"the-flavor-spot-philadelphia-2","name":"The Flavor Spot","image_url":"https://s3-media0.fl.yelpcdn.com/bphoto/Vl_OtSYG06Bdkn58OzUSTg/o.jpg","is_closed":false,"url":"https://www.yelp.com/biz/the-flavor-spot-philadelphia-2?adjust_creative=yF-muq-4vG-V-hKgmMcRvQ&utm_campaign=yelp_api_v3&utm_medium=api_v3_phone_search&utm_source=yF-muq-4vG-V-hKgmMcRvQ","review_count":27,"categories":[{"alias":"caribbean","title":"Caribbean"}],"rating":3,"coordinates":{"latitude":40.0498847961426,"longitude":-75.0949935913086},"transactions":["pickup","delivery"],"price":"$$","location":{"address1":"6417 Rising Sun Ave","address2":null,"address3":null,"city":"Philadelphia","zip_code":"19111","country":"US","state":"PA","display_address":["6417 Rising Sun Ave","Philadelphia, PA 19111"]},"phone":"+12157420206","display_phone":"(215) 742-0206"},{"id":"POzBrXKhfXigUoHjQjW7BA","alias":"the-flavor-spot-philadelphia-3","name":"The Flavor Spot","image_url":"https://s3-media0.fl.yelpcdn.com/bphoto/hJHnV59dmOyfGXkLwcNIKg/o.jpg","is_closed":false,"url":"https://www.yelp.com/biz/the-flavor-spot-philadelphia-3?adjust_creative=yF-muq-4vG-V-hKgmMcRvQ&utm_campaign=yelp_api_v3&utm_medium=api_v3_phone_search&utm_source=yF-muq-4vG-V-hKgmMcRvQ","review_count":14,"categories":[{"alias":"caribbean","title":"Caribbean"}],"rating":4,"coordinates":{"latitude":40.0294811140666,"longitude":-75.1464830338955},"transactions":["pickup","delivery"],"location":{"address1":"5013 N Broad St","address2":"","address3":"","city":"Philadelphia","zip_code":"19141","country":"US","state":"PA","display_address":["5013 N Broad St","Philadelphia, PA 19141"]},"phone":"+12154557768","display_phone":"(215) 455-7768"},{"id":"THdOD9iDjQIGwHp_kHwakw","alias":"food-for-your-soul-philadelphia-2","name":"Food For Your Soul","image_url":"https://s3-media0.fl.yelpcdn.com/bphoto/tWWuTlrXblh6a-4oYWevQQ/o.jpg","is_closed":false,"url":"https://www.yelp.com/biz/food-for-your-soul-philadelphia-2?adjust_creative=yF-muq-4vG-V-hKgmMcRvQ&utm_campaign=yelp_api_v3&utm_medium=api_v3_phone_search&utm_source=yF-muq-4vG-V-hKgmMcRvQ","review_count":4,"categories":[{"alias":"soulfood","title":"Soul Food"},{"alias":"seafood","title":"Seafood"},{"alias":"burgers","title":"Burgers"}],"rating":5,"coordinates":{"latitude":39.9225986,"longitude":-75.1548452},"transactions":["delivery"],"location":{"address1":"2039 S 5th St","address2":null,"address3":null,"city":"Philadelphia","zip_code":"19148","country":"US","state":"PA","display_address":["2039 S 5th St","Philadelphia, PA 19148"]},"phone":"+12153727340","display_phone":"(215) 372-7340"},{"id":"ZhEFPPLta5dBxUKnyqMF3Q","alias":"frannie-nicks-philadelphia","name":"Frannie Nicks","image_url":"https://s3-media0.fl.yelpcdn.com/bphoto/846q5rA03dcsbIZk0YxbfQ/o.jpg","is_closed":false,"url":"https://www.yelp.com/biz/frannie-nicks-philadelphia?adjust_creative=yF-muq-4vG-V-hKgmMcRvQ&utm_campaign=yelp_api_v3&utm_medium=api_v3_phone_search&utm_source=yF-muq-4vG-V-hKgmMcRvQ","review_count":8,"categories":[{"alias":"soulfood","title":"Soul Food"},{"alias":"seafood","title":"Seafood"},{"alias":"chicken_wings","title":"Chicken Wings"}],"rating":4,"coordinates":{"latitude":39.938948238435,"longitude":-75.1564078778028},"transactions":["pickup","delivery"],"location":{"address1":"824 S 8th St","address2":"","address3":null,"city":"Philadelphia","zip_code":"19147","country":"US","state":"PA","display_address":["824 S 8th St","Philadelphia, PA 19147"]},"phone":"+12159233495","display_phone":"(215) 923-3495"},{"id":"_O_KBH1MStcUkS1xk5pxsg","alias":"franny-lous-porch-philadelphia","name":"Franny Lou's Porch","image_url":"https://s3-media0.fl.yelpcdn.com/bphoto/iRisswAGT9W9VeI8mtvtzg/o.jpg","is_closed":false,"url":"https://www.yelp.com/biz/franny-lous-porch-philadelphia?adjust_creative=yF-muq-4vG-V-hKgmMcRvQ&utm_campaign=yelp_api_v3&utm_medium=api_v3_phone_search&utm_source=yF-muq-4vG-V-hKgmMcRvQ","review_count":50,"categories":[{"alias":"coffee","title":"Coffee & Tea"},{"alias":"bagels","title":"Bagels"},{"alias":"sandwiches","title":"Sandwiches"}],"rating":4,"coordinates":{"latitude":39.98357,"longitude":-75.12937},"transactions":["delivery","pickup"],"price":"$","location":{"address1":"2400 Coral St","address2":"","address3":"","city":"Philadelphia","zip_code":"19125","country":"US","state":"PA","display_address":["2400 Coral St","Philadelphia, PA 19125"]},"phone":"+12675966274","display_phone":"(267) 596-6274"},{"id":"C9UylQTOh7uwZo4a7QhLyg","alias":"friday-saturday-sunday-philadelphia-4","name":"Friday Saturday Sunday","image_url":"https://s3-media0.fl.yelpcdn.com/bphoto/1e0hrvbRx64pnRfChpVWaA/o.jpg","is_closed":false,"url":"https://www.yelp.com/biz/friday-saturday-sunday-philadelphia-4?adjust_creative=yF-muq-4vG-V-hKgmMcRvQ&utm_campaign=yelp_api_v3&utm_medium=api_v3_phone_search&utm_source=yF-muq-4vG-V-hKgmMcRvQ","review_count":276,"categories":[{"alias":"newamerican","title":"American (New)"},{"alias":"salad","title":"Salad"},{"alias":"seafood","title":"Seafood"}],"rating":4.5,"coordinates":{"latitude":39.948917388916,"longitude":-75.1759185791016},"transactions":[],"price":"$$$","location":{"address1":"261 S 21st St","address2":"","address3":null,"city":"Philadelphia","zip_code":"19103","country":"US","state":"PA","display_address":["261 S 21st St","Philadelphia, PA 19103"]},"phone":"+12155464232","display_phone":"(215) 546-4232"},{"id":"oLi0Av7zJycNUVfXTRe8NQ","alias":"gigi-and-big-r-philadelphia-2","name":"Gigi & Big R","image_url":"https://s3-media0.fl.yelpcdn.com/bphoto/boLjd8cdOOhmPMyHccOH9Q/o.jpg","is_closed":false,"url":"https://www.yelp.com/biz/gigi-and-big-r-philadelphia-2?adjust_creative=yF-muq-4vG-V-hKgmMcRvQ&utm_campaign=yelp_api_v3&utm_medium=api_v3_phone_search&utm_source=yF-muq-4vG-V-hKgmMcRvQ","review_count":19,"categories":[{"alias":"soulfood","title":"Soul Food"},{"alias":"caribbean","title":"Caribbean"},{"alias":"tradamerican","title":"American (Traditional)"}],"rating":3,"coordinates":{"latitude":39.96984,"longitude":-75.23878},"transactions":["delivery","pickup"],"price":"$$","location":{"address1":"5943 Haverford Ave","address2":"","address3":"","city":"Philadelphia","zip_code":"19151","country":"US","state":"PA","display_address":["5943 Haverford Ave","Philadelphia, PA 19151"]},"phone":"+12154710164","display_phone":"(215) 471-0164"},{"id":"59JWP6tOxoKIKeMSXcgNFw","alias":"gilbens-bakery-philadelphia-2","name":"Gilben's Bakery","image_url":"https://s3-media0.fl.yelpcdn.com/bphoto/AUi8DE8cbrCtsM0nV3KFSQ/o.jpg","is_closed":false,"url":"https://www.yelp.com/biz/gilbens-bakery-philadelphia-2?adjust_creative=yF-muq-4vG-V-hKgmMcRvQ&utm_campaign=yelp_api_v3&utm_medium=api_v3_phone_search&utm_source=yF-muq-4vG-V-hKgmMcRvQ","review_count":55,"categories":[{"alias":"bakeries","title":"Bakeries"},{"alias":"sandwiches","title":"Sandwiches"},{"alias":"cupcakes","title":"Cupcakes"}],"rating":4.5,"coordinates":{"latitude":40.0607621001226,"longitude":-75.167045854032},"transactions":["delivery"],"price":"$","location":{"address1":"7405 Stenton Ave","address2":"","address3":null,"city":"Philadelphia","zip_code":"19150","country":"US","state":"PA","display_address":["7405 Stenton Ave","Philadelphia, PA 19150"]},"phone":"+12152980879","display_phone":"(215) 298-0879"},{"id":"YDisPepPeWeELiVGycxOlw","alias":"gojjo-bar-and-restaurant-philadelphia","name":"Gojjo Bar & Restaurant","image_url":"https://s3-media0.fl.yelpcdn.com/bphoto/TwlU6SXdqSC7nXsH0Y_7uQ/o.jpg","is_closed":false,"url":"https://www.yelp.com/biz/gojjo-bar-and-restaurant-philadelphia?adjust_creative=yF-muq-4vG-V-hKgmMcRvQ&utm_campaign=yelp_api_v3&utm_medium=api_v3_phone_search&utm_source=yF-muq-4vG-V-hKgmMcRvQ","review_count":104,"categories":[{"alias":"ethiopian","title":"Ethiopian"},{"alias":"bars","title":"Bars"}],"rating":3,"coordinates":{"latitude":39.9486312866211,"longitude":-75.2141036987305},"transactions":["pickup"],"price":"$$","location":{"address1":"4540 Baltimore Ave","address2":"","address3":"","city":"Philadelphia","zip_code":"19143","country":"US","state":"PA","display_address":["4540 Baltimore Ave","Philadelphia, PA 19143"]},"phone":"+12153861444","display_phone":"(215) 386-1444"},{"id":"SUpQ7uFtXvdzgVubewMV8g","alias":"good-karma-cafe-philadelphia","name":"Good Karma Cafe","image_url":"https://s3-media0.fl.yelpcdn.com/bphoto/DrxrWb6-WqI0siOHjE-K_Q/o.jpg","is_closed":false,"url":"https://www.yelp.com/biz/good-karma-cafe-philadelphia?adjust_creative=yF-muq-4vG-V-hKgmMcRvQ&utm_campaign=yelp_api_v3&utm_medium=api_v3_phone_search&utm_source=yF-muq-4vG-V-hKgmMcRvQ","review_count":209,"categories":[{"alias":"coffee","title":"Coffee & Tea"}],"rating":4,"coordinates":{"latitude":39.9473679,"longitude":-75.1780146},"transactions":["delivery","pickup"],"price":"$","location":{"address1":"331 S 22nd St","address2":"","address3":"","city":"Philadelphia","zip_code":"19103","country":"US","state":"PA","display_address":["331 S 22nd St","Philadelphia, PA 19103"]},"phone":"+12155461479","display_phone":"(215) 546-1479"},{"id":"ZSaKeh2-3U9BiMMqZA0z9Q","alias":"good-karma-cafe-philadelphia-3","name":"Good Karma Cafe","image_url":"https://s3-media0.fl.yelpcdn.com/bphoto/lDDmGjwao4fBKaglfTdFbw/o.jpg","is_closed":false,"url":"https://www.yelp.com/biz/good-karma-cafe-philadelphia-3?adjust_creative=yF-muq-4vG-V-hKgmMcRvQ&utm_campaign=yelp_api_v3&utm_medium=api_v3_phone_search&utm_source=yF-muq-4vG-V-hKgmMcRvQ","review_count":99,"categories":[{"alias":"cafes","title":"Cafes"}],"rating":4.5,"coordinates":{"latitude":39.9512805,"longitude":-75.1792293},"transactions":["delivery"],"price":"$","location":{"address1":"2319 Walnut St","address2":"","address3":"","city":"Philadelphia","zip_code":"19103","country":"US","state":"PA","display_address":["2319 Walnut St","Philadelphia, PA 19103"]},"phone":"+12672392068","display_phone":"(267) 239-2068"},{"id":"eFvzHawVJofxSnD7TgbZtg","alias":"good-karma-cafe-philadelphia-2","name":"Good Karma Cafe","image_url":"https://s3-media0.fl.yelpcdn.com/bphoto/DP5AqHWBz_rWL7MUE3QmWg/o.jpg","is_closed":false,"url":"https://www.yelp.com/biz/good-karma-cafe-philadelphia-2?adjust_creative=yF-muq-4vG-V-hKgmMcRvQ&utm_campaign=yelp_api_v3&utm_medium=api_v3_phone_search&utm_source=yF-muq-4vG-V-hKgmMcRvQ","review_count":240,"categories":[{"alias":"coffee","title":"Coffee & Tea"}],"rating":4,"coordinates":{"latitude":39.9446092,"longitude":-75.1578331},"transactions":["delivery","pickup"],"price":"$","location":{"address1":"928 Pine St","address2":"","address3":"","city":"Philadelphia","zip_code":"19107","country":"US","state":"PA","display_address":["928 Pine St","Philadelphia, PA 19107"]},"phone":"+12675198860","display_phone":"(267) 519-8860"},{"id":"FOTp2JNMj0_SuDSPKYhixQ","alias":"good-karma-cafe-philadelphia-4","name":"Good Karma Cafe","image_url":"https://s3-media0.fl.yelpcdn.com/bphoto/Dwu8p4GMnwnW0c6-3ZHTBA/o.jpg","is_closed":false,"url":"https://www.yelp.com/biz/good-karma-cafe-philadelphia-4?adjust_creative=yF-muq-4vG-V-hKgmMcRvQ&utm_campaign=yelp_api_v3&utm_medium=api_v3_phone_search&utm_source=yF-muq-4vG-V-hKgmMcRvQ","review_count":28,"categories":[{"alias":"cafes","title":"Cafes"}],"rating":4.5,"coordinates":{"latitude":39.947097314116,"longitude":-75.164758125},"transactions":["delivery"],"price":"$$","location":{"address1":"265 S Broad St","address2":"","address3":null,"city":"Philadelphia","zip_code":"19107","country":"US","state":"PA","display_address":["265 S Broad St","Philadelphia, PA 19107"]},"phone":"+12673187229","display_phone":"(267) 318-7229"},{"id":"GYFDgaBkWnxepHoyJ7mWAw","alias":"green-soul-philadelphia-4","name":"Green Soul","image_url":"https://s3-media0.fl.yelpcdn.com/bphoto/ljgYnp3jZgIQntqkHRxAhg/o.jpg","is_closed":false,"url":"https://www.yelp.com/biz/green-soul-philadelphia-4?adjust_creative=yF-muq-4vG-V-hKgmMcRvQ&utm_campaign=yelp_api_v3&utm_medium=api_v3_phone_search&utm_source=yF-muq-4vG-V-hKgmMcRvQ","review_count":92,"categories":[{"alias":"salad","title":"Salad"},{"alias":"juicebars","title":"Juice Bars & Smoothies"},{"alias":"southern","title":"Southern"}],"rating":4.5,"coordinates":{"latitude":39.9643517,"longitude":-75.1612914},"transactions":["delivery","pickup"],"price":"$$","location":{"address1":"1410 Mount Vernon St","address2":"","address3":null,"city":"Philadelphia","zip_code":"19130","country":"US","state":"PA","display_address":["1410 Mount Vernon St","Philadelphia, PA 19130"]},"phone":"+12156609600","display_phone":"(215) 660-9600"},{"id":"GSRBHi_05ZhYp3EROKL_rQ","alias":"haverford-grill-and-soul-philadelphia","name":"Haverford Grill & Soul","image_url":"https://s3-media0.fl.yelpcdn.com/bphoto/W7sm4rHEYYH5LQ9xUpTdWw/o.jpg","is_closed":false,"url":"https://www.yelp.com/biz/haverford-grill-and-soul-philadelphia?adjust_creative=yF-muq-4vG-V-hKgmMcRvQ&utm_campaign=yelp_api_v3&utm_medium=api_v3_phone_search&utm_source=yF-muq-4vG-V-hKgmMcRvQ","review_count":54,"categories":[{"alias":"bbq","title":"Barbeque"},{"alias":"soulfood","title":"Soul Food"}],"rating":3,"coordinates":{"latitude":39.9719429016113,"longitude":-75.2505722045898},"transactions":["pickup","delivery"],"price":"$$","location":{"address1":"6548 Haverford Ave","address2":"","address3":"","city":"Philadelphia","zip_code":"19151","country":"US","state":"PA","display_address":["6548 Haverford Ave","Philadelphia, PA 19151"]},"phone":"+12154767685","display_phone":"(215) 476-7685"},{"id":"TyhguONKc8i6M7wP09nTbA","alias":"hibiscus-cafe-philadelphia","name":"Hibiscus Cafe","image_url":"https://s3-media0.fl.yelpcdn.com/bphoto/9zu-WAUWqPU6BEvPyRHqeA/o.jpg","is_closed":false,"url":"https://www.yelp.com/biz/hibiscus-cafe-philadelphia?adjust_creative=yF-muq-4vG-V-hKgmMcRvQ&utm_campaign=yelp_api_v3&utm_medium=api_v3_phone_search&utm_source=yF-muq-4vG-V-hKgmMcRvQ","review_count":137,"categories":[{"alias":"vegetarian","title":"Vegetarian"},{"alias":"juicebars","title":"Juice Bars & Smoothies"},{"alias":"vegan","title":"Vegan"}],"rating":4.5,"coordinates":{"latitude":39.94851,"longitude":-75.22156},"transactions":["delivery"],"price":"$$","location":{"address1":"4907 Catharine St","address2":"","address3":"","city":"Philadelphia","zip_code":"19143","country":"US","state":"PA","display_address":["4907 Catharine St","Philadelphia, PA 19143"]},"phone":"+12153073749","display_phone":"(215) 307-3749"},{"id":"OX1eFYQwN1iYdFd0fkNpqw","alias":"imunch-cafe-philadelphia","name":"iMunch Cafe","image_url":"https://s3-media0.fl.yelpcdn.com/bphoto/ZO_eOEvdpVRkiQuYiuytXw/o.jpg","is_closed":false,"url":"https://www.yelp.com/biz/imunch-cafe-philadelphia?adjust_creative=yF-muq-4vG-V-hKgmMcRvQ&utm_campaign=yelp_api_v3&utm_medium=api_v3_phone_search&utm_source=yF-muq-4vG-V-hKgmMcRvQ","review_count":132,"categories":[{"alias":"coffee","title":"Coffee & Tea"},{"alias":"breakfast_brunch","title":"Breakfast & Brunch"},{"alias":"sandwiches","title":"Sandwiches"}],"rating":4.5,"coordinates":{"latitude":39.97592,"longitude":-75.18627},"transactions":["delivery","pickup"],"price":"$","location":{"address1":"1233 N 31st St","address2":"","address3":"","city":"Philadelphia","zip_code":"19121","country":"US","state":"PA","display_address":["1233 N 31st St","Philadelphia, PA 19121"]},"phone":"+12152368624","display_phone":"(215) 236-8624"},{"id":"hid9ixP7Rtoj2pR4EBrcGg","alias":"irie-jamaican-restaurant-philadelphia","name":"Irie Jamaican Restaurant","image_url":"https://s3-media0.fl.yelpcdn.com/bphoto/wF_bO_yWObxbv_jToDBZHA/o.jpg","is_closed":false,"url":"https://www.yelp.com/biz/irie-jamaican-restaurant-philadelphia?adjust_creative=yF-muq-4vG-V-hKgmMcRvQ&utm_campaign=yelp_api_v3&utm_medium=api_v3_phone_search&utm_source=yF-muq-4vG-V-hKgmMcRvQ","review_count":43,"categories":[{"alias":"caribbean","title":"Caribbean"}],"rating":4,"coordinates":{"latitude":39.974236,"longitude":-75.179942},"transactions":["delivery"],"price":"$","location":{"address1":"2629 W Girard Ave","address2":"","address3":"","city":"Philadelphia","zip_code":"19130","country":"US","state":"PA","display_address":["2629 W Girard Ave","Philadelphia, PA 19130"]},"phone":"+12675700001","display_phone":"(267) 570-0001"},{"id":"MYZuMWSZ9-1q-_1fbWfvow","alias":"jamaican-ds-philadelphia-2","name":"Jamaican D's","image_url":"https://s3-media0.fl.yelpcdn.com/bphoto/L10CEoYLlSRMEx0XfiHOvg/o.jpg","is_closed":false,"url":"https://www.yelp.com/biz/jamaican-ds-philadelphia-2?adjust_creative=yF-muq-4vG-V-hKgmMcRvQ&utm_campaign=yelp_api_v3&utm_medium=api_v3_phone_search&utm_source=yF-muq-4vG-V-hKgmMcRvQ","review_count":141,"categories":[{"alias":"caribbean","title":"Caribbean"}],"rating":4,"coordinates":{"latitude":40.05245,"longitude":-75.158},"transactions":["delivery","pickup"],"price":"$$","location":{"address1":"1265 E Chelten Ave","address2":null,"address3":null,"city":"Philadelphia","zip_code":"19138","country":"US","state":"PA","display_address":["1265 E Chelten Ave","Philadelphia, PA 19138"]},"phone":"+12159277415","display_phone":"(215) 927-7415"},{"id":"pj8Y-5vfbRitnnm2xJFH9w","alias":"jamaican-jerk-hut-philadelphia","name":"Jamaican Jerk Hut","image_url":"https://s3-media0.fl.yelpcdn.com/bphoto/SWV0D6vpQwUhttJfx28rWQ/o.jpg","is_closed":false,"url":"https://www.yelp.com/biz/jamaican-jerk-hut-philadelphia?adjust_creative=yF-muq-4vG-V-hKgmMcRvQ&utm_campaign=yelp_api_v3&utm_medium=api_v3_phone_search&utm_source=yF-muq-4vG-V-hKgmMcRvQ","review_count":263,"categories":[{"alias":"caribbean","title":"Caribbean"}],"rating":2.5,"coordinates":{"latitude":39.944275,"longitude":-75.166787},"transactions":["pickup","delivery"],"price":"$$","location":{"address1":"1436 South St","address2":"","address3":null,"city":"Philadelphia","zip_code":"19146","country":"US","state":"PA","display_address":["1436 South St","Philadelphia, PA 19146"]},"phone":"+12155458644","display_phone":"(215) 545-8644"},{"id":"ZbBLdIlFsbVnbQoLUwmkEw","alias":"jamils-cafe-on-wheels-philadelphia","name":"Jamils cafe on wheels","image_url":"","is_closed":false,"url":"https://www.yelp.com/biz/jamils-cafe-on-wheels-philadelphia?adjust_creative=yF-muq-4vG-V-hKgmMcRvQ&utm_campaign=yelp_api_v3&utm_medium=api_v3_phone_search&utm_source=yF-muq-4vG-V-hKgmMcRvQ","review_count":6,"categories":[{"alias":"soulfood","title":"Soul Food"},{"alias":"foodtrucks","title":"Food Trucks"}],"rating":5,"coordinates":{"latitude":40.0605242460154,"longitude":-75.1913664710147},"transactions":["delivery"],"location":{"address1":"7135 Germantown Ave","address2":"","address3":null,"city":"Philadelphia","zip_code":"19119","country":"US","state":"PA","display_address":["7135 Germantown Ave","Philadelphia, PA 19119"]},"phone":"+12152212838","display_phone":"(215) 221-2838"},{"id":"4hH1lt7mHPbl4r2O7LH6nA","alias":"jordan-johnsons-gourmet-seafood-philadelphia-3","name":"Jordan Johnson's Gourmet Seafood","image_url":"https://s3-media0.fl.yelpcdn.com/bphoto/OcQvX822iFdkok2zqDCujQ/o.jpg","is_closed":false,"url":"https://www.yelp.com/biz/jordan-johnsons-gourmet-seafood-philadelphia-3?adjust_creative=yF-muq-4vG-V-hKgmMcRvQ&utm_campaign=yelp_api_v3&utm_medium=api_v3_phone_search&utm_source=yF-muq-4vG-V-hKgmMcRvQ","review_count":119,"categories":[{"alias":"seafood","title":"Seafood"}],"rating":3.5,"coordinates":{"latitude":40.0452326726295,"longitude":-75.0607880119755},"transactions":["delivery"],"price":"$$","location":{"address1":"7199 Buselton Ave","address2":"","address3":"","city":"Philadelphia","zip_code":"19149","country":"US","state":"PA","display_address":["7199 Buselton Ave","Philadelphia, PA 19149"]},"phone":"+12153332277","display_phone":"(215) 333-2277"},{"id":"OBFrA7Xz3cS1JG3xMafplw","alias":"just-to-serve-you-philadelphia","name":"Just To Serve You","image_url":"https://s3-media0.fl.yelpcdn.com/bphoto/deBGwVW4GYrzNKHXe1qBkQ/o.jpg","is_closed":false,"url":"https://www.yelp.com/biz/just-to-serve-you-philadelphia?adjust_creative=yF-muq-4vG-V-hKgmMcRvQ&utm_campaign=yelp_api_v3&utm_medium=api_v3_phone_search&utm_source=yF-muq-4vG-V-hKgmMcRvQ","review_count":95,"categories":[{"alias":"tradamerican","title":"American (Traditional)"},{"alias":"catering","title":"Caterers"}],"rating":3,"coordinates":{"latitude":39.970401,"longitude":-75.233463},"transactions":["delivery","pickup"],"price":"$$","location":{"address1":"5622 W Girard Ave","address2":null,"address3":null,"city":"Philadelphia","zip_code":"19131","country":"US","state":"PA","display_address":["5622 W Girard Ave","Philadelphia, PA 19131"]},"phone":"+12675310331","display_phone":"(267) 531-0331"},{"id":"PuukXxCe1V7OhG-pcViC9Q","alias":"k-and-j-caribbean-american-diner-philadelphia","name":"K & J Caribbean American Diner","image_url":"https://s3-media0.fl.yelpcdn.com/bphoto/2ePpIHW9it-4i_3gJ1XCbw/o.jpg","is_closed":false,"url":"https://www.yelp.com/biz/k-and-j-caribbean-american-diner-philadelphia?adjust_creative=yF-muq-4vG-V-hKgmMcRvQ&utm_campaign=yelp_api_v3&utm_medium=api_v3_phone_search&utm_source=yF-muq-4vG-V-hKgmMcRvQ","review_count":29,"categories":[{"alias":"diners","title":"Diners"}],"rating":3.5,"coordinates":{"latitude":40.03384,"longitude":-75.17569},"transactions":["delivery"],"price":"$","location":{"address1":"5603 Greene St","address2":"","address3":"","city":"Philadelphia","zip_code":"19144","country":"US","state":"PA","display_address":["5603 Greene St","Philadelphia, PA 19144"]},"phone":"+12158490242","display_phone":"(215) 849-0242"},{"id":"5ICrDkwtX4ykKOLVJ1tFJA","alias":"kaffa-crossing-philadelphia","name":"Kaffa Crossing","image_url":"https://s3-media0.fl.yelpcdn.com/bphoto/3Fw5Xa3Jh_M3rxZkGFs42Q/o.jpg","is_closed":false,"url":"https://www.yelp.com/biz/kaffa-crossing-philadelphia?adjust_creative=yF-muq-4vG-V-hKgmMcRvQ&utm_campaign=yelp_api_v3&utm_medium=api_v3_phone_search&utm_source=yF-muq-4vG-V-hKgmMcRvQ","review_count":191,"categories":[{"alias":"ethiopian","title":"Ethiopian"}],"rating":4,"coordinates":{"latitude":39.95693,"longitude":-75.21043},"transactions":["delivery"],"price":"$","location":{"address1":"4423 Chestnut St","address2":"","address3":"","city":"Philadelphia","zip_code":"19104","country":"US","state":"PA","display_address":["4423 Chestnut St","Philadelphia, PA 19104"]},"phone":"+12153860504","display_phone":"(215) 386-0504"},{"id":"PZ9gjIi-x6B9_DbSiFT65Q","alias":"keshas-kitchen-philadelphia","name":"Keshas Kitchen","image_url":"https://s3-media0.fl.yelpcdn.com/bphoto/UND97HQv11sJpvQiOeEJJg/o.jpg","is_closed":false,"url":"https://www.yelp.com/biz/keshas-kitchen-philadelphia?adjust_creative=yF-muq-4vG-V-hKgmMcRvQ&utm_campaign=yelp_api_v3&utm_medium=api_v3_phone_search&utm_source=yF-muq-4vG-V-hKgmMcRvQ","review_count":22,"categories":[{"alias":"seafood","title":"Seafood"},{"alias":"soulfood","title":"Soul Food"},{"alias":"breakfast_brunch","title":"Breakfast & Brunch"}],"rating":2.5,"coordinates":{"latitude":40.01459,"longitude":-75.08481},"transactions":["delivery","pickup"],"price":"$$","location":{"address1":"1621 Orthodox St","address2":null,"address3":"","city":"Philadelphia","zip_code":"19124","country":"US","state":"PA","display_address":["1621 Orthodox St","Philadelphia, PA 19124"]},"phone":"+12152881700","display_phone":"(215) 288-1700"},{"id":"ziyXteCmNmRprs10buP2iQ","alias":"kilimandjaro-restaurant-philadelphia","name":"Kilimandjaro Restaurant","image_url":"https://s3-media0.fl.yelpcdn.com/bphoto/KX-fl42F3bO0Lxed4Ivueg/o.jpg","is_closed":false,"url":"https://www.yelp.com/biz/kilimandjaro-restaurant-philadelphia?adjust_creative=yF-muq-4vG-V-hKgmMcRvQ&utm_campaign=yelp_api_v3&utm_medium=api_v3_phone_search&utm_source=yF-muq-4vG-V-hKgmMcRvQ","review_count":243,"categories":[{"alias":"african","title":"African"}],"rating":4,"coordinates":{"latitude":39.9565696,"longitude":-75.2086729},"transactions":["delivery"],"price":"$$","location":{"address1":"4317 Chestnut St","address2":"","address3":"","city":"Philadelphia","zip_code":"19104","country":"US","state":"PA","display_address":["4317 Chestnut St","Philadelphia, PA 19104"]},"phone":"+12153871970","display_phone":"(215) 387-1970"},{"id":"S-VD26LE_LeJNx5nASk_pw","alias":"kings-and-queens-liberian-cuisine-upper-darby-2","name":"Kings and Queens Liberian Cuisine","image_url":"https://s3-media0.fl.yelpcdn.com/bphoto/Z0j158n7-XAaGWFfhvA-wg/o.jpg","is_closed":false,"url":"https://www.yelp.com/biz/kings-and-queens-liberian-cuisine-upper-darby-2?adjust_creative=yF-muq-4vG-V-hKgmMcRvQ&utm_campaign=yelp_api_v3&utm_medium=api_v3_phone_search&utm_source=yF-muq-4vG-V-hKgmMcRvQ","review_count":64,"categories":[{"alias":"african","title":"African"}],"rating":4,"coordinates":{"latitude":39.9608282457259,"longitude":-75.2629683539271},"transactions":["delivery","pickup"],"price":"$$","location":{"address1":"107 Fairfield Ave","address2":null,"address3":"","city":"Upper Darby","zip_code":"19082","country":"US","state":"PA","display_address":["107 Fairfield Ave","Upper Darby, PA 19082"]},"phone":"+14844663359","display_phone":"(484) 466-3359"},{"id":"G-FrjKHpQVoH_P1saaMNRQ","alias":"kingston-11-philadelphia","name":"Kingston 11","image_url":"https://s3-media0.fl.yelpcdn.com/bphoto/GeIHIktLnuU5xQ50CN5NFQ/o.jpg","is_closed":false,"url":"https://www.yelp.com/biz/kingston-11-philadelphia?adjust_creative=yF-muq-4vG-V-hKgmMcRvQ&utm_campaign=yelp_api_v3&utm_medium=api_v3_phone_search&utm_source=yF-muq-4vG-V-hKgmMcRvQ","review_count":33,"categories":[{"alias":"caribbean","title":"Caribbean"}],"rating":3.5,"coordinates":{"latitude":39.9264441817392,"longitude":-75.2335146814585},"transactions":["delivery"],"location":{"address1":"6405 Woodland Ave","address2":"","address3":null,"city":"Philadelphia","zip_code":"19142","country":"US","state":"PA","display_address":["6405 Woodland Ave","Philadelphia, PA 19142"]},"phone":"+12155960216","display_phone":"(215) 596-0216"},{"id":"TUCm1lCkh-usRYRl3U0S8w","alias":"le-mandingue-african-restaurant-philadelphia","name":"Le Mandingue African Restaurant","image_url":"https://s3-media0.fl.yelpcdn.com/bphoto/yJAmXEPhvh1nVYsGT6KqAg/o.jpg","is_closed":false,"url":"https://www.yelp.com/biz/le-mandingue-african-restaurant-philadelphia?adjust_creative=yF-muq-4vG-V-hKgmMcRvQ&utm_campaign=yelp_api_v3&utm_medium=api_v3_phone_search&utm_source=yF-muq-4vG-V-hKgmMcRvQ","review_count":61,"categories":[{"alias":"african","title":"African"}],"rating":3.5,"coordinates":{"latitude":39.92399,"longitude":-75.2361},"transactions":["delivery","pickup"],"price":"$$","location":{"address1":"6620 Woodland Ave","address2":null,"address3":null,"city":"Philadelphia","zip_code":"19142","country":"US","state":"PA","display_address":["6620 Woodland Ave","Philadelphia, PA 19142"]},"phone":"+12157260543","display_phone":"(215) 726-0543"},{"id":"-NG3pA9LEXCxt0Fjd_aYYA","alias":"lindas-vegetarian-village-philadelphia","name":"Linda's Vegetarian Village","image_url":"https://s3-media0.fl.yelpcdn.com/bphoto/mI0hkRIDwiQVyf1eN73zRw/o.jpg","is_closed":false,"url":"https://www.yelp.com/biz/lindas-vegetarian-village-philadelphia?adjust_creative=yF-muq-4vG-V-hKgmMcRvQ&utm_campaign=yelp_api_v3&utm_medium=api_v3_phone_search&utm_source=yF-muq-4vG-V-hKgmMcRvQ","review_count":41,"categories":[{"alias":"vegetarian","title":"Vegetarian"}],"rating":4.5,"coordinates":{"latitude":40.0458794,"longitude":-75.1819763},"transactions":["delivery"],"price":"$","location":{"address1":"6381 Germantown Ave","address2":null,"address3":"","city":"Philadelphia","zip_code":"19144","country":"US","state":"PA","display_address":["6381 Germantown Ave","Philadelphia, PA 19144"]},"phone":"+12154382500","display_phone":"(215) 438-2500"},{"id":"aPI5KpboojbTqLEMH_oY7w","alias":"little-delicious-philadelphia","name":"Little Delicious","image_url":"https://s3-media0.fl.yelpcdn.com/bphoto/u3py3gMvNphH4FLJh6qo0g/o.jpg","is_closed":false,"url":"https://www.yelp.com/biz/little-delicious-philadelphia?adjust_creative=yF-muq-4vG-V-hKgmMcRvQ&utm_campaign=yelp_api_v3&utm_medium=api_v3_phone_search&utm_source=yF-muq-4vG-V-hKgmMcRvQ","review_count":60,"categories":[{"alias":"caribbean","title":"Caribbean"}],"rating":4,"coordinates":{"latitude":39.94156,"longitude":-75.21237},"transactions":["delivery"],"price":"$","location":{"address1":"4821 Woodland Ave","address2":"","address3":"","city":"Philadelphia","zip_code":"19143","country":"US","state":"PA","display_address":["4821 Woodland Ave","Philadelphia, PA 19143"]},"phone":"+12157294911","display_phone":"(215) 729-4911"},{"id":"QZ1INuVuad6KSCcEtPSzUw","alias":"monroe-press-philadelphia","name":"Monroe Press","image_url":"","is_closed":false,"url":"https://www.yelp.com/biz/monroe-press-philadelphia?adjust_creative=yF-muq-4vG-V-hKgmMcRvQ&utm_campaign=yelp_api_v3&utm_medium=api_v3_phone_search&utm_source=yF-muq-4vG-V-hKgmMcRvQ","review_count":1,"categories":[{"alias":"screen_printing_tshirt_printing","title":"Screen Printing/T-Shirt Printing"},{"alias":"copyshops","title":"Printing Services"}],"rating":1,"coordinates":{"latitude":40.030834,"longitude":-75.231812},"transactions":[],"location":{"address1":"4674 Canton St","address2":null,"address3":"","city":"Philadelphia","zip_code":"19127","country":"US","state":"PA","display_address":["4674 Canton St","Philadelphia, PA 19127"]},"phone":"+12157787868","display_phone":"(215) 778-7868"},{"id":"vdpxxb6fxjYtJMnW_V0GZg","alias":"lucky-goat-coffeehouse-philadelphia-2","name":"Lucky Goat Coffeehouse","image_url":"https://s3-media0.fl.yelpcdn.com/bphoto/uejLHOWV27tcJlV-Gjgrig/o.jpg","is_closed":false,"url":"https://www.yelp.com/biz/lucky-goat-coffeehouse-philadelphia-2?adjust_creative=yF-muq-4vG-V-hKgmMcRvQ&utm_campaign=yelp_api_v3&utm_medium=api_v3_phone_search&utm_source=yF-muq-4vG-V-hKgmMcRvQ","review_count":128,"categories":[{"alias":"coffee","title":"Coffee & Tea"}],"rating":4.5,"coordinates":{"latitude":39.9725217939216,"longitude":-75.1792898198912},"transactions":["delivery"],"price":"$","location":{"address1":"888 N 26th St","address2":"","address3":"","city":"Philadelphia","zip_code":"19130","country":"US","state":"PA","display_address":["888 N 26th St","Philadelphia, PA 19130"]},"phone":"+12159784628","display_phone":"(215) 978-4628"},{"id":"Cwz2B0bXZXwCZ6Ru9-P6UA","alias":"miracles-jamaican-restaurant-and-bakery-philadelphia","name":"Miracles Jamaican Restaurant and Bakery","image_url":"https://s3-media0.fl.yelpcdn.com/bphoto/4C6RTdzNCcVlw18Qh1TbDw/o.jpg","is_closed":false,"url":"https://www.yelp.com/biz/miracles-jamaican-restaurant-and-bakery-philadelphia?adjust_creative=yF-muq-4vG-V-hKgmMcRvQ&utm_campaign=yelp_api_v3&utm_medium=api_v3_phone_search&utm_source=yF-muq-4vG-V-hKgmMcRvQ","review_count":12,"categories":[{"alias":"bakeries","title":"Bakeries"},{"alias":"caribbean","title":"Caribbean"}],"rating":2.5,"coordinates":{"latitude":40.0428569974152,"longitude":-75.0737344846129},"transactions":["delivery"],"price":"$$","location":{"address1":"6635 Castor Ave","address2":"","address3":"","city":"Philadelphia","zip_code":"19149","country":"US","state":"PA","display_address":["6635 Castor Ave","Philadelphia, PA 19149"]},"phone":"+12153423513","display_phone":"(215) 342-3513"},{"id":"vaP7DHSndrfPwhZB7XiJFQ","alias":"morgans-fruits-and-vegetables-philadelphia","name":"Morgan's Fruits & Vegetables","image_url":"","is_closed":false,"url":"https://www.yelp.com/biz/morgans-fruits-and-vegetables-philadelphia?adjust_creative=yF-muq-4vG-V-hKgmMcRvQ&utm_campaign=yelp_api_v3&utm_medium=api_v3_phone_search&utm_source=yF-muq-4vG-V-hKgmMcRvQ","review_count":1,"categories":[{"alias":"markets","title":"Fruits & Veggies"}],"rating":4,"coordinates":{"latitude":39.9865455627441,"longitude":-75.2317581176758},"transactions":["delivery","pickup"],"location":{"address1":"1921 N 54th St","address2":"","address3":"","city":"Philadelphia","zip_code":"19131","country":"US","state":"PA","display_address":["1921 N 54th St","Philadelphia, PA 19131"]},"phone":"+12154773340","display_phone":"(215) 477-3340"},{"id":"h7n599RGtvFLmLycugT2MQ","alias":"warmdaddys-philadelphia","name":"Warmdaddy's","image_url":"https://s3-media0.fl.yelpcdn.com/bphoto/MY2qJgEhZPYOy0-lDdUiJg/o.jpg","is_closed":false,"url":"https://www.yelp.com/biz/warmdaddys-philadelphia?adjust_creative=yF-muq-4vG-V-hKgmMcRvQ&utm_campaign=yelp_api_v3&utm_medium=api_v3_phone_search&utm_source=yF-muq-4vG-V-hKgmMcRvQ","review_count":481,"categories":[{"alias":"southern","title":"Southern"},{"alias":"breakfast_brunch","title":"Breakfast & Brunch"},{"alias":"salad","title":"Salad"}],"rating":3.5,"coordinates":{"latitude":39.92931,"longitude":-75.14516},"transactions":["delivery","pickup"],"price":"$$","location":{"address1":"1400 S Christopher Columbus Blvd","address2":"","address3":"","city":"Philadelphia","zip_code":"19147","country":"US","state":"PA","display_address":["1400 S Christopher Columbus Blvd","Philadelphia, PA 19147"]},"phone":"+12154622000","display_phone":"(215) 462-2000"},{"id":"JtAyaKWwnax-Ag20WXW10Q","alias":"mt-airy-deli-philadelphia-2","name":"Mt. Airy Deli","image_url":"https://s3-media0.fl.yelpcdn.com/bphoto/I9XVUkyGF2z5AEaqdWDFdA/o.jpg","is_closed":false,"url":"https://www.yelp.com/biz/mt-airy-deli-philadelphia-2?adjust_creative=yF-muq-4vG-V-hKgmMcRvQ&utm_campaign=yelp_api_v3&utm_medium=api_v3_phone_search&utm_source=yF-muq-4vG-V-hKgmMcRvQ","review_count":106,"categories":[{"alias":"delis","title":"Delis"},{"alias":"cheesesteaks","title":"Cheesesteaks"},{"alias":"breakfast_brunch","title":"Breakfast & Brunch"}],"rating":4.5,"coordinates":{"latitude":40.0632429,"longitude":-75.188104},"transactions":["delivery","pickup"],"price":"$$","location":{"address1":"7200 Devon St","address2":null,"address3":"","city":"Philadelphia","zip_code":"19119","country":"US","state":"PA","display_address":["7200 Devon St","Philadelphia, PA 19119"]},"phone":"+12152429274","display_phone":"(215) 242-9274"},{"id":"vM3W3-ILN10eaF1HVJ8m_w","alias":"barbers-hall-philadelphia-2","name":"Barber's Hall","image_url":"https://s3-media0.fl.yelpcdn.com/bphoto/hISAW9UsNCc3F3dGobX78w/o.jpg","is_closed":false,"url":"https://www.yelp.com/biz/barbers-hall-philadelphia-2?adjust_creative=yF-muq-4vG-V-hKgmMcRvQ&utm_campaign=yelp_api_v3&utm_medium=api_v3_phone_search&utm_source=yF-muq-4vG-V-hKgmMcRvQ","review_count":9,"categories":[{"alias":"venues","title":"Venues & Event Spaces"},{"alias":"sportsbars","title":"Sports Bars"}],"rating":3.5,"coordinates":{"latitude":39.977123260498,"longitude":-75.1589431762695},"transactions":["delivery","pickup"],"price":"$$","location":{"address1":"1402 W Oxford St","address2":"","address3":"","city":"Philadelphia","zip_code":"19121","country":"US","state":"PA","display_address":["1402 W Oxford St","Philadelphia, PA 19121"]},"phone":"+12157630369","display_phone":"(215) 763-0369"},{"id":"BELS5YkYjDFkpbM2FuDdaA","alias":"nourish-philadelphia-2","name":"Nourish","image_url":"https://s3-media0.fl.yelpcdn.com/bphoto/5eq7z5WyCH7ebUSOR-HqEQ/o.jpg","is_closed":false,"url":"https://www.yelp.com/biz/nourish-philadelphia-2?adjust_creative=yF-muq-4vG-V-hKgmMcRvQ&utm_campaign=yelp_api_v3&utm_medium=api_v3_phone_search&utm_source=yF-muq-4vG-V-hKgmMcRvQ","review_count":9,"categories":[{"alias":"vegan","title":"Vegan"},{"alias":"juicebars","title":"Juice Bars & Smoothies"}],"rating":5,"coordinates":{"latitude":39.942041,"longitude":-75.153789},"transactions":["pickup","delivery"],"price":"$$","location":{"address1":"650 South St","address2":"","address3":null,"city":"Philadelphia","zip_code":"19147","country":"US","state":"PA","display_address":["650 South St","Philadelphia, PA 19147"]},"phone":"+12677619242","display_phone":"(267) 761-9242"},{"id":"cyD6G9JYmBP6yeYpierGFg","alias":"obsidian-eats-philadelphia","name":"Obsidian Eats","image_url":"https://s3-media0.fl.yelpcdn.com/bphoto/pR_snxpu35_L6Q26f-Ykvw/o.jpg","is_closed":false,"url":"https://www.yelp.com/biz/obsidian-eats-philadelphia?adjust_creative=yF-muq-4vG-V-hKgmMcRvQ&utm_campaign=yelp_api_v3&utm_medium=api_v3_phone_search&utm_source=yF-muq-4vG-V-hKgmMcRvQ","review_count":1,"categories":[{"alias":"vegan","title":"Vegan"}],"rating":3,"coordinates":{"latitude":39.95223,"longitude":-75.16218},"transactions":[],"price":"$","location":{"address1":null,"address2":null,"address3":"","city":"Philadelphia","zip_code":"","country":"US","state":"PA","display_address":["Philadelphia, PA"]},"phone":"+18455980811","display_phone":"(845) 598-0811"},{"id":"tqBkgu2wyCjYBWuTQoy2aw","alias":"orchard-smoothie-and-cafe-philadelphia-2","name":"Orchard Smoothie and Cafe","image_url":"https://s3-media0.fl.yelpcdn.com/bphoto/tfHd6wOCzrhVRqB_jRL8cg/o.jpg","is_closed":false,"url":"https://www.yelp.com/biz/orchard-smoothie-and-cafe-philadelphia-2?adjust_creative=yF-muq-4vG-V-hKgmMcRvQ&utm_campaign=yelp_api_v3&utm_medium=api_v3_phone_search&utm_source=yF-muq-4vG-V-hKgmMcRvQ","review_count":17,"categories":[{"alias":"juicebars","title":"Juice Bars & Smoothies"},{"alias":"cafes","title":"Cafes"}],"rating":3,"coordinates":{"latitude":39.93495,"longitude":-75.1637},"transactions":["pickup","delivery"],"location":{"address1":"1200  S Federal St","address2":null,"address3":null,"city":"Philadelphia","zip_code":"19146","country":"US","state":"PA","display_address":["1200  S Federal St","Philadelphia, PA 19146"]},"phone":"+12676066579","display_phone":"(267) 606-6579"},{"id":"3StCmEw7AhBdHKIEkckGeA","alias":"paprika-restaurant-philadelphia","name":"Paprika Restaurant","image_url":"https://s3-media0.fl.yelpcdn.com/bphoto/YZBABhXSBMAGCWCnGwjfIw/o.jpg","is_closed":false,"url":"https://www.yelp.com/biz/paprika-restaurant-philadelphia?adjust_creative=yF-muq-4vG-V-hKgmMcRvQ&utm_campaign=yelp_api_v3&utm_medium=api_v3_phone_search&utm_source=yF-muq-4vG-V-hKgmMcRvQ","review_count":62,"categories":[{"alias":"seafood","title":"Seafood"},{"alias":"halal","title":"Halal"},{"alias":"tradamerican","title":"American (Traditional)"}],"rating":3.5,"coordinates":{"latitude":40.01785,"longitude":-75.15462},"transactions":["delivery"],"price":"$$","location":{"address1":"4167 Germantown Ave","address2":"","address3":"","city":"Philadelphia","zip_code":"19140","country":"US","state":"PA","display_address":["4167 Germantown Ave","Philadelphia, PA 19140"]},"phone":"+12154554663","display_phone":"(215) 455-4663"},{"id":"WzbKilRpbcblgv38AV58eA","alias":"the-cheesecake-lady-elkins-park","name":"The Cheesecake Lady","image_url":"https://s3-media0.fl.yelpcdn.com/bphoto/QZFa9afTID41oAYt0DpYvg/o.jpg","is_closed":false,"url":"https://www.yelp.com/biz/the-cheesecake-lady-elkins-park?adjust_creative=yF-muq-4vG-V-hKgmMcRvQ&utm_campaign=yelp_api_v3&utm_medium=api_v3_phone_search&utm_source=yF-muq-4vG-V-hKgmMcRvQ","review_count":83,"categories":[{"alias":"desserts","title":"Desserts"}],"rating":5,"coordinates":{"latitude":40.081378,"longitude":-75.117549},"transactions":["pickup","delivery"],"price":"$$","location":{"address1":"910 Township Line Rd","address2":null,"address3":"","city":"Elkins Park","zip_code":"19027","country":"US","state":"PA","display_address":["910 Township Line Rd","Elkins Park, PA 19027"]},"phone":"+12675753952","display_phone":"(267) 575-3952"},{"id":"01mP5a06zQpaYOakfaVBOQ","alias":"phillys-platinum-grille-philadelphia","name":"Philly's Platinum Grille","image_url":"https://s3-media0.fl.yelpcdn.com/bphoto/H59EyyZYEaHncoEpyzlPqA/o.jpg","is_closed":false,"url":"https://www.yelp.com/biz/phillys-platinum-grille-philadelphia?adjust_creative=yF-muq-4vG-V-hKgmMcRvQ&utm_campaign=yelp_api_v3&utm_medium=api_v3_phone_search&utm_source=yF-muq-4vG-V-hKgmMcRvQ","review_count":53,"categories":[{"alias":"newamerican","title":"American (New)"},{"alias":"bars","title":"Bars"},{"alias":"soulfood","title":"Soul Food"}],"rating":2.5,"coordinates":{"latitude":40.0723756849766,"longitude":-75.1930602639914},"transactions":["delivery"],"price":"$$","location":{"address1":"7719 Crittenden St","address2":"","address3":"","city":"Philadelphia","zip_code":"19118","country":"US","state":"PA","display_address":["7719 Crittenden St","Philadelphia, PA 19118"]},"phone":"+12152472312","display_phone":"(215) 247-2312"},{"id":"g2zwbLIqxtN9nGGuL43trg","alias":"pizza-brain-philadelphia","name":"Pizza Brain","image_url":"https://s3-media0.fl.yelpcdn.com/bphoto/On3tpbAq2NEer0gvPGQeJg/o.jpg","is_closed":false,"url":"https://www.yelp.com/biz/pizza-brain-philadelphia?adjust_creative=yF-muq-4vG-V-hKgmMcRvQ&utm_campaign=yelp_api_v3&utm_medium=api_v3_phone_search&utm_source=yF-muq-4vG-V-hKgmMcRvQ","review_count":545,"categories":[{"alias":"pizza","title":"Pizza"}],"rating":4,"coordinates":{"latitude":39.9806289672852,"longitude":-75.1280212402344},"transactions":["delivery","pickup"],"price":"$$","location":{"address1":"2313 Frankford Ave","address2":"","address3":"","city":"Philadelphia","zip_code":"19125","country":"US","state":"PA","display_address":["2313 Frankford Ave","Philadelphia, PA 19125"]},"phone":"+12152912965","display_phone":"(215) 291-2965"},{"id":"g2zwbLIqxtN9nGGuL43trg","alias":"pizza-brain-philadelphia","name":"Pizza Brain","image_url":"https://s3-media0.fl.yelpcdn.com/bphoto/On3tpbAq2NEer0gvPGQeJg/o.jpg","is_closed":false,"url":"https://www.yelp.com/biz/pizza-brain-philadelphia?adjust_creative=yF-muq-4vG-V-hKgmMcRvQ&utm_campaign=yelp_api_v3&utm_medium=api_v3_phone_search&utm_source=yF-muq-4vG-V-hKgmMcRvQ","review_count":545,"categories":[{"alias":"pizza","title":"Pizza"}],"rating":4,"coordinates":{"latitude":39.9806289672852,"longitude":-75.1280212402344},"transactions":["delivery","pickup"],"price":"$$","location":{"address1":"2313 Frankford Ave","address2":"","address3":"","city":"Philadelphia","zip_code":"19125","country":"US","state":"PA","display_address":["2313 Frankford Ave","Philadelphia, PA 19125"]},"phone":"+12152912965","display_phone":"(215) 291-2965"},{"id":"b5PFC7Uatlsr5AZqSZyCpQ","alias":"pizza-dads-philadelphia","name":"Pizza Dads","image_url":"https://s3-media0.fl.yelpcdn.com/bphoto/7qRZsyYYGjvhVCCQ3AXRZA/o.jpg","is_closed":false,"url":"https://www.yelp.com/biz/pizza-dads-philadelphia?adjust_creative=yF-muq-4vG-V-hKgmMcRvQ&utm_campaign=yelp_api_v3&utm_medium=api_v3_phone_search&utm_source=yF-muq-4vG-V-hKgmMcRvQ","review_count":76,"categories":[{"alias":"pizza","title":"Pizza"}],"rating":3.5,"coordinates":{"latitude":39.97471988673,"longitude":-75.1833302155137},"transactions":["pickup","delivery"],"price":"$$","location":{"address1":"2843 W Girard Ave","address2":"","address3":null,"city":"Philadelphia","zip_code":"19130","country":"US","state":"PA","display_address":["2843 W Girard Ave","Philadelphia, PA 19130"]},"phone":"+12157633237","display_phone":"(215) 763-3237"},{"id":"gXiWHYBuPLWWXZJPOP1uKw","alias":"pretty-girls-cook-philadelphia","name":"Pretty Girls Cook","image_url":"https://s3-media0.fl.yelpcdn.com/bphoto/amYBs06m3LsRtB1H5spVHA/o.jpg","is_closed":false,"url":"https://www.yelp.com/biz/pretty-girls-cook-philadelphia?adjust_creative=yF-muq-4vG-V-hKgmMcRvQ&utm_campaign=yelp_api_v3&utm_medium=api_v3_phone_search&utm_source=yF-muq-4vG-V-hKgmMcRvQ","review_count":128,"categories":[{"alias":"tradamerican","title":"American (Traditional)"},{"alias":"breakfast_brunch","title":"Breakfast & Brunch"}],"rating":4,"coordinates":{"latitude":39.9699452213117,"longitude":-75.1475351472087},"transactions":["delivery"],"price":"$$","location":{"address1":"1016 N Marshall St","address2":"","address3":null,"city":"Philadelphia","zip_code":"19123","country":"US","state":"PA","display_address":["1016 N Marshall St","Philadelphia, PA 19123"]},"phone":"+12152782260","display_phone":"(215) 278-2260"},{"id":"LBDIwmGed02sn5Z5CFIyPQ","alias":"quality-taste-jamaican-restaurant-philadelphia","name":"Quality Taste Jamaican Restaurant","image_url":"https://s3-media0.fl.yelpcdn.com/bphoto/LYkaXRhL6BVRghk1BKBX_A/o.jpg","is_closed":false,"url":"https://www.yelp.com/biz/quality-taste-jamaican-restaurant-philadelphia?adjust_creative=yF-muq-4vG-V-hKgmMcRvQ&utm_campaign=yelp_api_v3&utm_medium=api_v3_phone_search&utm_source=yF-muq-4vG-V-hKgmMcRvQ","review_count":87,"categories":[{"alias":"caribbean","title":"Caribbean"}],"rating":4,"coordinates":{"latitude":39.9631119,"longitude":-75.202713},"transactions":["delivery"],"price":"$","location":{"address1":"4002 Lancaster Ave","address2":"","address3":"","city":"Philadelphia","zip_code":"19104","country":"US","state":"PA","display_address":["4002 Lancaster Ave","Philadelphia, PA 19104"]},"phone":"+12676346821","display_phone":"(267) 634-6821"},{"id":"fyxmwXdg9fJ13TpuF-KSbQ","alias":"reef-restaurant-and-lounge-philadelphia-14","name":"Reef Restaurant & Lounge","image_url":"https://s3-media0.fl.yelpcdn.com/bphoto/gScNyPDHij_676hL9uMNWw/o.jpg","is_closed":false,"url":"https://www.yelp.com/biz/reef-restaurant-and-lounge-philadelphia-14?adjust_creative=yF-muq-4vG-V-hKgmMcRvQ&utm_campaign=yelp_api_v3&utm_medium=api_v3_phone_search&utm_source=yF-muq-4vG-V-hKgmMcRvQ","review_count":170,"categories":[{"alias":"tradamerican","title":"American (Traditional)"},{"alias":"caribbean","title":"Caribbean"},{"alias":"lounges","title":"Lounges"}],"rating":3,"coordinates":{"latitude":39.94115,"longitude":-75.14737},"transactions":["pickup","delivery"],"price":"$$","location":{"address1":"605 S 3rd St","address2":"","address3":"","city":"Philadelphia","zip_code":"19147","country":"US","state":"PA","display_address":["605 S 3rd St","Philadelphia, PA 19147"]},"phone":"+12156290102","display_phone":"(215) 629-0102"},{"id":"ysvzP0VvMTrGmUClKJ3img","alias":"ms-tootsies-rbl-philadelphia","name":"Ms Tootsie's RBL","image_url":"https://s3-media0.fl.yelpcdn.com/bphoto/T0AkX6vTl33X8TcfOluTKQ/o.jpg","is_closed":false,"url":"https://www.yelp.com/biz/ms-tootsies-rbl-philadelphia?adjust_creative=yF-muq-4vG-V-hKgmMcRvQ&utm_campaign=yelp_api_v3&utm_medium=api_v3_phone_search&utm_source=yF-muq-4vG-V-hKgmMcRvQ","review_count":605,"categories":[{"alias":"soulfood","title":"Soul Food"}],"rating":3.5,"coordinates":{"latitude":39.943275,"longitude":-75.163819},"transactions":["pickup","delivery"],"price":"$$","location":{"address1":"1312 South St","address2":"","address3":"","city":"Philadelphia","zip_code":"19147","country":"US","state":"PA","display_address":["1312 South St","Philadelphia, PA 19147"]},"phone":"+12157319045","display_phone":"(215) 731-9045"},{"id":"32It9NN_lVismU9tcuLB0A","alias":"relish-philadelphia","name":"Relish","image_url":"https://s3-media0.fl.yelpcdn.com/bphoto/um8z3VpaKkJMzN7VwsFjRQ/o.jpg","is_closed":false,"url":"https://www.yelp.com/biz/relish-philadelphia?adjust_creative=yF-muq-4vG-V-hKgmMcRvQ&utm_campaign=yelp_api_v3&utm_medium=api_v3_phone_search&utm_source=yF-muq-4vG-V-hKgmMcRvQ","review_count":338,"categories":[{"alias":"southern","title":"Southern"},{"alias":"desserts","title":"Desserts"},{"alias":"seafood","title":"Seafood"}],"rating":3.5,"coordinates":{"latitude":40.0633,"longitude":-75.15269},"transactions":["pickup","delivery"],"price":"$$","location":{"address1":"7152 Ogontz Ave","address2":"","address3":"","city":"Philadelphia","zip_code":"19138","country":"US","state":"PA","display_address":["7152 Ogontz Ave","Philadelphia, PA 19138"]},"phone":"+12152760170","display_phone":"(215) 276-0170"},{"id":"Y7asEgUrJc3W9vD7wxEnQg","alias":"rhythm-and-brunch-philadelphia","name":"Rhythm and Brunch","image_url":"https://s3-media0.fl.yelpcdn.com/bphoto/WnqfIR78fXzkZpFgYZ9iOQ/o.jpg","is_closed":false,"url":"https://www.yelp.com/biz/rhythm-and-brunch-philadelphia?adjust_creative=yF-muq-4vG-V-hKgmMcRvQ&utm_campaign=yelp_api_v3&utm_medium=api_v3_phone_search&utm_source=yF-muq-4vG-V-hKgmMcRvQ","review_count":99,"categories":[{"alias":"newamerican","title":"American (New)"},{"alias":"breakfast_brunch","title":"Breakfast & Brunch"}],"rating":4,"coordinates":{"latitude":39.9219015059064,"longitude":-75.2311522531672},"transactions":["delivery","pickup"],"price":"$$","location":{"address1":"6517 Elmwood Ave","address2":"","address3":null,"city":"Philadelphia","zip_code":"19142","country":"US","state":"PA","display_address":["6517 Elmwood Ave","Philadelphia, PA 19142"]},"phone":"+12159219915","display_phone":"(215) 921-9915"},{"id":"h85b3MFPWyaopMBy8DpBpA","alias":"rons-caribbean-cuisine-philadelphia","name":"Ron's Caribbean Cuisine","image_url":"https://s3-media0.fl.yelpcdn.com/bphoto/z3Vc5qcXNYC243-pDLbMOw/o.jpg","is_closed":false,"url":"https://www.yelp.com/biz/rons-caribbean-cuisine-philadelphia?adjust_creative=yF-muq-4vG-V-hKgmMcRvQ&utm_campaign=yelp_api_v3&utm_medium=api_v3_phone_search&utm_source=yF-muq-4vG-V-hKgmMcRvQ","review_count":113,"categories":[{"alias":"cafes","title":"Cafes"},{"alias":"caribbean","title":"Caribbean"}],"rating":4,"coordinates":{"latitude":40.0406837,"longitude":-75.1445389},"transactions":["delivery"],"price":"$$","location":{"address1":"5726 N Broad St","address2":"","address3":"","city":"Philadelphia","zip_code":"19141","country":"US","state":"PA","display_address":["5726 N Broad St","Philadelphia, PA 19141"]},"phone":"+12159243966","display_phone":"(215) 924-3966"},{"id":"xSMPGUKxl7p3ls2KBMaNHg","alias":"rose-petals-cafe-and-lounge-elkins-park-3","name":"Rose Petals Cafe & Lounge","image_url":"https://s3-media0.fl.yelpcdn.com/bphoto/izAnV2qOaaLtsMoLvvdQEA/o.jpg","is_closed":false,"url":"https://www.yelp.com/biz/rose-petals-cafe-and-lounge-elkins-park-3?adjust_creative=yF-muq-4vG-V-hKgmMcRvQ&utm_campaign=yelp_api_v3&utm_medium=api_v3_phone_search&utm_source=yF-muq-4vG-V-hKgmMcRvQ","review_count":138,"categories":[{"alias":"breakfast_brunch","title":"Breakfast & Brunch"},{"alias":"waffles","title":"Waffles"},{"alias":"coffee","title":"Coffee & Tea"}],"rating":4,"coordinates":{"latitude":40.078997,"longitude":-75.127882},"transactions":["delivery"],"price":"$$","location":{"address1":"8120 Old York Rd","address2":null,"address3":"","city":"Elkins Park","zip_code":"19027","country":"US","state":"PA","display_address":["8120 Old York Rd","Elkins Park, PA 19027"]},"phone":"+12156904706","display_phone":"(215) 690-4706"},{"id":"h-cUfr_s3U7XP2DpPkoJqg","alias":"saudia-shulers-country-cookin-philadelphia","name":"Saudia Shuler's Country Cookin'","image_url":"https://s3-media0.fl.yelpcdn.com/bphoto/CIL-c6shiItvLl7eAveKwQ/o.jpg","is_closed":false,"url":"https://www.yelp.com/biz/saudia-shulers-country-cookin-philadelphia?adjust_creative=yF-muq-4vG-V-hKgmMcRvQ&utm_campaign=yelp_api_v3&utm_medium=api_v3_phone_search&utm_source=yF-muq-4vG-V-hKgmMcRvQ","review_count":133,"categories":[{"alias":"soulfood","title":"Soul Food"}],"rating":3.5,"coordinates":{"latitude":39.99811,"longitude":-75.1673},"transactions":["delivery"],"price":"$$","location":{"address1":"2836 N 22nd St","address2":"","address3":"","city":"Philadelphia","zip_code":"19132","country":"US","state":"PA","display_address":["2836 N 22nd St","Philadelphia, PA 19132"]},"phone":"+12676253664","display_phone":"(267) 625-3664"},{"id":"KL3dmEZ7AEg9m90hM8V_Cg","alias":"shugar-shack-glenolden","name":"Shugar Shack","image_url":"https://s3-media0.fl.yelpcdn.com/bphoto/fnP2mX5nvWlbG99wCYrfmA/o.jpg","is_closed":false,"url":"https://www.yelp.com/biz/shugar-shack-glenolden?adjust_creative=yF-muq-4vG-V-hKgmMcRvQ&utm_campaign=yelp_api_v3&utm_medium=api_v3_phone_search&utm_source=yF-muq-4vG-V-hKgmMcRvQ","review_count":15,"categories":[{"alias":"soulfood","title":"Soul Food"}],"rating":3,"coordinates":{"latitude":39.901466,"longitude":-75.2865838631988},"transactions":["delivery","pickup"],"location":{"address1":"45 N Chester Pike","address2":"","address3":null,"city":"Glenolden","zip_code":"19036","country":"US","state":"PA","display_address":["45 N Chester Pike","Glenolden, PA 19036"]},"phone":"+16102552155","display_phone":"(610) 255-2155"},{"id":"1ju18Y3tWAFIP5mhk32UoA","alias":"siddiqs-real-fruit-water-ice-philadelphia","name":"Siddiq's Real Fruit Water Ice","image_url":"https://s3-media0.fl.yelpcdn.com/bphoto/9HrLhVCifgzTn04psB-73g/o.jpg","is_closed":false,"url":"https://www.yelp.com/biz/siddiqs-real-fruit-water-ice-philadelphia?adjust_creative=yF-muq-4vG-V-hKgmMcRvQ&utm_campaign=yelp_api_v3&utm_medium=api_v3_phone_search&utm_source=yF-muq-4vG-V-hKgmMcRvQ","review_count":18,"categories":[{"alias":"icecream","title":"Ice Cream & Frozen Yogurt"}],"rating":5,"coordinates":{"latitude":39.9573108194434,"longitude":-75.2415780723095},"transactions":["delivery"],"price":"$","location":{"address1":"264 S 60th St","address2":"","address3":null,"city":"Philadelphia","zip_code":"19139","country":"US","state":"PA","display_address":["264 S 60th St","Philadelphia, PA 19139"]},"phone":"+12154106513","display_phone":"(215) 410-6513"},{"id":"aaqm5vJvVj3vyMeGwPqxEw","alias":"side-of-the-road-jerk-chicken-philadelphia","name":"Side of the Road Jerk Chicken","image_url":"https://s3-media0.fl.yelpcdn.com/bphoto/n_YgKXwE7Aefnq9lWUUuIA/o.jpg","is_closed":false,"url":"https://www.yelp.com/biz/side-of-the-road-jerk-chicken-philadelphia?adjust_creative=yF-muq-4vG-V-hKgmMcRvQ&utm_campaign=yelp_api_v3&utm_medium=api_v3_phone_search&utm_source=yF-muq-4vG-V-hKgmMcRvQ","review_count":33,"categories":[{"alias":"foodstands","title":"Food Stands"},{"alias":"bbq","title":"Barbeque"}],"rating":4,"coordinates":{"latitude":40.007836,"longitude":-75.186061},"transactions":["delivery","pickup"],"price":"$","location":{"address1":"3502 Scotts Ln","address2":"Ste 2114","address3":"","city":"Philadelphia","zip_code":"19123","country":"US","state":"PA","display_address":["3502 Scotts Ln","Ste 2114","Philadelphia, PA 19123"]},"phone":"+12672977286","display_phone":"(267) 297-7286"},{"id":"4abvxpEmxAKgBiUnV7kA2A","alias":"soulfed-philly-krabbing-with-kingz-philadelphia","name":"Soulfed philly Krabbing With Kingz","image_url":"","is_closed":false,"url":"https://www.yelp.com/biz/soulfed-philly-krabbing-with-kingz-philadelphia?adjust_creative=yF-muq-4vG-V-hKgmMcRvQ&utm_campaign=yelp_api_v3&utm_medium=api_v3_phone_search&utm_source=yF-muq-4vG-V-hKgmMcRvQ","review_count":2,"categories":[{"alias":"lounges","title":"Lounges"}],"rating":1.5,"coordinates":{"latitude":40.0405507322726,"longitude":-75.076966881752},"transactions":[],"location":{"address1":"6424 Castor Ave","address2":"","address3":null,"city":"Philadelphia","zip_code":"19149","country":"US","state":"PA","display_address":["6424 Castor Ave","Philadelphia, PA 19149"]},"phone":"+12155443269","display_phone":"(215) 544-3269"},{"id":"Xjm9AUpS1_bVi5PjTF0K0w","alias":"soul-food-artist-philadelphia","name":"Soul Food Artist","image_url":"https://s3-media0.fl.yelpcdn.com/bphoto/Vv6woE6Q2XLn9HfaVYot3Q/o.jpg","is_closed":false,"url":"https://www.yelp.com/biz/soul-food-artist-philadelphia?adjust_creative=yF-muq-4vG-V-hKgmMcRvQ&utm_campaign=yelp_api_v3&utm_medium=api_v3_phone_search&utm_source=yF-muq-4vG-V-hKgmMcRvQ","review_count":8,"categories":[{"alias":"soulfood","title":"Soul Food"}],"rating":3,"coordinates":{"latitude":40.04246,"longitude":-75.0259933333333},"transactions":["delivery","pickup"],"location":{"address1":"8052 Frankford Ave","address2":"","address3":null,"city":"Philadelphia","zip_code":"19136","country":"US","state":"PA","display_address":["8052 Frankford Ave","Philadelphia, PA 19136"]},"phone":"+12677311754","display_phone":"(267) 731-1754"},{"id":"KscVqYYG7ziAroZhfNb0Ng","alias":"south-philadelphia","name":"South","image_url":"https://s3-media0.fl.yelpcdn.com/bphoto/kk-sItAw0xL_ffMUk-mnug/o.jpg","is_closed":false,"url":"https://www.yelp.com/biz/south-philadelphia?adjust_creative=yF-muq-4vG-V-hKgmMcRvQ&utm_campaign=yelp_api_v3&utm_medium=api_v3_phone_search&utm_source=yF-muq-4vG-V-hKgmMcRvQ","review_count":438,"categories":[{"alias":"southern","title":"Southern"},{"alias":"jazzandblues","title":"Jazz & Blues"},{"alias":"bars","title":"Bars"}],"rating":4,"coordinates":{"latitude":39.964395,"longitude":-75.161227},"transactions":["delivery","pickup"],"price":"$$","location":{"address1":"600 N Broad St","address2":"","address3":"","city":"Philadelphia","zip_code":"19130","country":"US","state":"PA","display_address":["600 N Broad St","Philadelphia, PA 19130"]},"phone":"+12156000220","display_phone":"(215) 600-0220"},{"id":"XfxBlYGBEe9qBKN_6AA7Uw","alias":"southside-zabihah-halal-eatery-philadelphia","name":"Southside Zabihah Halal Eatery","image_url":"https://s3-media0.fl.yelpcdn.com/bphoto/yFbQt3VoFVNWsn2ZvHYzfA/o.jpg","is_closed":false,"url":"https://www.yelp.com/biz/southside-zabihah-halal-eatery-philadelphia?adjust_creative=yF-muq-4vG-V-hKgmMcRvQ&utm_campaign=yelp_api_v3&utm_medium=api_v3_phone_search&utm_source=yF-muq-4vG-V-hKgmMcRvQ","review_count":14,"categories":[{"alias":"soulfood","title":"Soul Food"},{"alias":"cheesesteaks","title":"Cheesesteaks"},{"alias":"tradamerican","title":"American (Traditional)"}],"rating":4.5,"coordinates":{"latitude":39.954945,"longitude":-75.24247},"transactions":["delivery","pickup"],"location":{"address1":"422 S 60th St","address2":null,"address3":"","city":"Philadelphia","zip_code":"19143","country":"US","state":"PA","display_address":["422 S 60th St","Philadelphia, PA 19143"]},"phone":"+12672923936","display_phone":"(267) 292-3936"},{"id":"KZl-0F4hKwhKSLPmT-A6dw","alias":"star-fusion-philadelphia-2","name":"Star Fusion","image_url":"https://s3-media0.fl.yelpcdn.com/bphoto/9Bt-YyhyWGRHcSXxISYy_Q/o.jpg","is_closed":false,"url":"https://www.yelp.com/biz/star-fusion-philadelphia-2?adjust_creative=yF-muq-4vG-V-hKgmMcRvQ&utm_campaign=yelp_api_v3&utm_medium=api_v3_phone_search&utm_source=yF-muq-4vG-V-hKgmMcRvQ","review_count":99,"categories":[{"alias":"cafes","title":"Cafes"}],"rating":3.5,"coordinates":{"latitude":39.98624,"longitude":-75.24716},"transactions":["pickup","delivery"],"price":"$$","location":{"address1":"2013 N 63rd St","address2":null,"address3":"","city":"Philadelphia","zip_code":"19151","country":"US","state":"PA","display_address":["2013 N 63rd St","Philadelphia, PA 19151"]},"phone":"+12158791108","display_phone":"(215) 879-1108"},{"id":"yEXvgdOxH6EGrwGmELzQAQ","alias":"strippd-cold-pressed-juice-philadelphia","name":"Stripp'd Cold Pressed Juice","image_url":"https://s3-media0.fl.yelpcdn.com/bphoto/ERg6G1fjRm_IV25ff24uRQ/o.jpg","is_closed":false,"url":"https://www.yelp.com/biz/strippd-cold-pressed-juice-philadelphia?adjust_creative=yF-muq-4vG-V-hKgmMcRvQ&utm_campaign=yelp_api_v3&utm_medium=api_v3_phone_search&utm_source=yF-muq-4vG-V-hKgmMcRvQ","review_count":79,"categories":[{"alias":"juicebars","title":"Juice Bars & Smoothies"}],"rating":4,"coordinates":{"latitude":39.9557445088613,"longitude":-75.144189775091},"transactions":[],"price":"$$","location":{"address1":"263 N 3rd St","address2":"","address3":"","city":"Philadelphia","zip_code":"19106","country":"US","state":"PA","display_address":["263 N 3rd St","Philadelphia, PA 19106"]},"phone":"+12675507877","display_phone":"(267) 550-7877"},{"id":"s_dMgCtQSMGBkru_nkfTpw","alias":"sundays-best-philadelphia","name":"Sunday's Best","image_url":"https://s3-media0.fl.yelpcdn.com/bphoto/hKkdcoiXsvoWSlVhkqCwOA/o.jpg","is_closed":false,"url":"https://www.yelp.com/biz/sundays-best-philadelphia?adjust_creative=yF-muq-4vG-V-hKgmMcRvQ&utm_campaign=yelp_api_v3&utm_medium=api_v3_phone_search&utm_source=yF-muq-4vG-V-hKgmMcRvQ","review_count":7,"categories":[{"alias":"caribbean","title":"Caribbean"}],"rating":4.5,"coordinates":{"latitude":39.9609794616699,"longitude":-75.2243118286133},"transactions":[],"price":"$$","location":{"address1":"41 N 52nd St","address2":"","address3":"","city":"Philadelphia","zip_code":"19139","country":"US","state":"PA","display_address":["41 N 52nd St","Philadelphia, PA 19139"]},"phone":"+12154762660","display_phone":"(215) 476-2660"},{"id":"70STxTke5G_Y5e-W9xcGdw","alias":"big-gs-chicken-shack-philadelphia","name":"Big G's Chicken Shack","image_url":"https://s3-media0.fl.yelpcdn.com/bphoto/GCLaD8EJ9HqvjqhV2YPDoA/o.jpg","is_closed":false,"url":"https://www.yelp.com/biz/big-gs-chicken-shack-philadelphia?adjust_creative=yF-muq-4vG-V-hKgmMcRvQ&utm_campaign=yelp_api_v3&utm_medium=api_v3_phone_search&utm_source=yF-muq-4vG-V-hKgmMcRvQ","review_count":14,"categories":[{"alias":"chickenshop","title":"Chicken Shop"}],"rating":3,"coordinates":{"latitude":39.9556169318125,"longitude":-75.2255039289594},"transactions":["delivery","pickup"],"location":{"address1":"5148 Locust St","address2":"","address3":null,"city":"Philadelphia","zip_code":"19139","country":"US","state":"PA","display_address":["5148 Locust St","Philadelphia, PA 19139"]},"phone":"+14458883408","display_phone":"(445) 888-3408"},{"id":"MCQCfEIPK_6oNzmfjwEXsA","alias":"sweet-nectar-dessert-kitchen-philadelphia","name":"Sweet Nectar Dessert Kitchen","image_url":"https://s3-media0.fl.yelpcdn.com/bphoto/h1f_YBOQ6yofxmmi-vWqKA/o.jpg","is_closed":false,"url":"https://www.yelp.com/biz/sweet-nectar-dessert-kitchen-philadelphia?adjust_creative=yF-muq-4vG-V-hKgmMcRvQ&utm_campaign=yelp_api_v3&utm_medium=api_v3_phone_search&utm_source=yF-muq-4vG-V-hKgmMcRvQ","review_count":35,"categories":[{"alias":"bakeries","title":"Bakeries"},{"alias":"cupcakes","title":"Cupcakes"}],"rating":4,"coordinates":{"latitude":39.9637482315302,"longitude":-75.170883089304},"transactions":[],"price":"$$","location":{"address1":"547 N 20th St","address2":"","address3":"","city":"Philadelphia","zip_code":"19130","country":"US","state":"PA","display_address":["547 N 20th St","Philadelphia, PA 19130"]},"phone":"+12673187143","display_phone":"(267) 318-7143"},{"id":"3VA5BgRcVd-mAvSFJFFveQ","alias":"sweet-ninas-philadelphia","name":"Sweet Nina's","image_url":"https://s3-media0.fl.yelpcdn.com/bphoto/4lsguei0bAbGCFx27McagQ/o.jpg","is_closed":false,"url":"https://www.yelp.com/biz/sweet-ninas-philadelphia?adjust_creative=yF-muq-4vG-V-hKgmMcRvQ&utm_campaign=yelp_api_v3&utm_medium=api_v3_phone_search&utm_source=yF-muq-4vG-V-hKgmMcRvQ","review_count":39,"categories":[{"alias":"desserts","title":"Desserts"}],"rating":4.5,"coordinates":{"latitude":39.9532043994865,"longitude":-75.1591792702675},"transactions":["delivery","pickup"],"price":"$","location":{"address1":"51 N 12th St","address2":"","address3":null,"city":"Philadelphia","zip_code":"19107","country":"US","state":"PA","display_address":["51 N 12th St","Philadelphia, PA 19107"]},"phone":"+12158058757","display_phone":"(215) 805-8757"},{"id":"iZ4KANow3OJt3QyfG3Yolg","alias":"sweet-treat-hut-philadelphia-2","name":"Sweet Treat Hut","image_url":"","is_closed":false,"url":"https://www.yelp.com/biz/sweet-treat-hut-philadelphia-2?adjust_creative=yF-muq-4vG-V-hKgmMcRvQ&utm_campaign=yelp_api_v3&utm_medium=api_v3_phone_search&utm_source=yF-muq-4vG-V-hKgmMcRvQ","review_count":1,"categories":[{"alias":"juicebars","title":"Juice Bars & Smoothies"},{"alias":"acaibowls","title":"Acai Bowls"}],"rating":4,"coordinates":{"latitude":39.93487,"longitude":-75.16698},"transactions":["pickup","delivery"],"location":{"address1":"1221 S Broad St","address2":"","address3":null,"city":"Philadelphia","zip_code":"19147","country":"US","state":"PA","display_address":["1221 S Broad St","Philadelphia, PA 19147"]},"phone":"+16107083675","display_phone":"(610) 708-3675"},{"id":"zqZx70_E5Y_W4rjhahpJag","alias":"tashias-cocktails-and-cuisine-philadelphia","name":"Tashia's Cocktails & Cuisine","image_url":"https://s3-media0.fl.yelpcdn.com/bphoto/_BCNbmAO-SddxCEE5RBKkw/o.jpg","is_closed":false,"url":"https://www.yelp.com/biz/tashias-cocktails-and-cuisine-philadelphia?adjust_creative=yF-muq-4vG-V-hKgmMcRvQ&utm_campaign=yelp_api_v3&utm_medium=api_v3_phone_search&utm_source=yF-muq-4vG-V-hKgmMcRvQ","review_count":21,"categories":[{"alias":"lounges","title":"Lounges"},{"alias":"cocktailbars","title":"Cocktail Bars"}],"rating":3.5,"coordinates":{"latitude":40.0159472576986,"longitude":-75.1543130725622},"transactions":["delivery","pickup"],"location":{"address1":"1641 W Hunting Park Ave","address2":"","address3":null,"city":"Philadelphia","zip_code":"19140","country":"US","state":"PA","display_address":["1641 W Hunting Park Ave","Philadelphia, PA 19140"]},"phone":"+12152282201","display_phone":"(215) 228-2201"},{"id":"KnyuQ1D7QE7X8eMk8T3kTA","alias":"tasties-philadelphia-3","name":"Tasties","image_url":"https://s3-media0.fl.yelpcdn.com/bphoto/r9AKQAmUKsyqfFt-RQS-eQ/o.jpg","is_closed":false,"url":"https://www.yelp.com/biz/tasties-philadelphia-3?adjust_creative=yF-muq-4vG-V-hKgmMcRvQ&utm_campaign=yelp_api_v3&utm_medium=api_v3_phone_search&utm_source=yF-muq-4vG-V-hKgmMcRvQ","review_count":49,"categories":[{"alias":"soulfood","title":"Soul Food"}],"rating":2.5,"coordinates":{"latitude":40.03174,"longitude":-75.16777},"transactions":["delivery"],"price":"$$","location":{"address1":"5241 Germantown Ave","address2":"","address3":"","city":"Philadelphia","zip_code":"19144","country":"US","state":"PA","display_address":["5241 Germantown Ave","Philadelphia, PA 19144"]},"phone":"+12159917844","display_phone":"(215) 991-7844"},{"id":"wCluBbW9nzS7MEMFltMwJw","alias":"tasties-philadelphia-2","name":"Tasties","image_url":"https://s3-media0.fl.yelpcdn.com/bphoto/vzgm9Hm9lBJGVSiDxfgy_g/o.jpg","is_closed":false,"url":"https://www.yelp.com/biz/tasties-philadelphia-2?adjust_creative=yF-muq-4vG-V-hKgmMcRvQ&utm_campaign=yelp_api_v3&utm_medium=api_v3_phone_search&utm_source=yF-muq-4vG-V-hKgmMcRvQ","review_count":90,"categories":[{"alias":"soulfood","title":"Soul Food"}],"rating":2.5,"coordinates":{"latitude":39.97179,"longitude":-75.2262},"transactions":["delivery"],"price":"$$","location":{"address1":"1212 N 52nd St","address2":"","address3":"","city":"Philadelphia","zip_code":"19144","country":"US","state":"PA","display_address":["1212 N 52nd St","Philadelphia, PA 19144"]},"phone":"+12154770281","display_phone":"(215) 477-0281"},{"id":"E9pmORNtyX53ZLWEZx4N-w","alias":"tays-soul-food-philadelphia","name":"Tay's Soul Food","image_url":"https://s3-media0.fl.yelpcdn.com/bphoto/H_dM-EEEiSgRiPe4TmewCQ/o.jpg","is_closed":false,"url":"https://www.yelp.com/biz/tays-soul-food-philadelphia?adjust_creative=yF-muq-4vG-V-hKgmMcRvQ&utm_campaign=yelp_api_v3&utm_medium=api_v3_phone_search&utm_source=yF-muq-4vG-V-hKgmMcRvQ","review_count":14,"categories":[{"alias":"soulfood","title":"Soul Food"}],"rating":3,"coordinates":{"latitude":40.03222,"longitude":-75.09154},"transactions":["delivery"],"location":{"address1":"901 Bridge St","address2":null,"address3":"","city":"Philadelphia","zip_code":"19124","country":"US","state":"PA","display_address":["901 Bridge St","Philadelphia, PA 19124"]},"phone":"+12154377514","display_phone":"(215) 437-7514"},{"id":"GdqZaRx-gN8IxrmqYTXcbA","alias":"terron-philadelphia","name":"Terron","image_url":"https://s3-media0.fl.yelpcdn.com/bphoto/LYm37Mc7WOaz-neMTYCFHQ/o.jpg","is_closed":false,"url":"https://www.yelp.com/biz/terron-philadelphia?adjust_creative=yF-muq-4vG-V-hKgmMcRvQ&utm_campaign=yelp_api_v3&utm_medium=api_v3_phone_search&utm_source=yF-muq-4vG-V-hKgmMcRvQ","review_count":24,"categories":[{"alias":"vegan","title":"Vegan"}],"rating":4.5,"coordinates":{"latitude":40.011687,"longitude":-75.18933},"transactions":["delivery","pickup"],"location":{"address1":"3426 Conrad St","address2":null,"address3":"","city":"Philadelphia","zip_code":"19129","country":"US","state":"PA","display_address":["3426 Conrad St","Philadelphia, PA 19129"]},"phone":"+12157167111","display_phone":"(215) 716-7111"},{"id":"6M5r34Sk3mC6kCVXLYKrag","alias":"the-better-box-philadelphia","name":"The Better Box","image_url":"https://s3-media0.fl.yelpcdn.com/bphoto/R4Z5YYz8JeqrjopCgLhVwA/o.jpg","is_closed":false,"url":"https://www.yelp.com/biz/the-better-box-philadelphia?adjust_creative=yF-muq-4vG-V-hKgmMcRvQ&utm_campaign=yelp_api_v3&utm_medium=api_v3_phone_search&utm_source=yF-muq-4vG-V-hKgmMcRvQ","review_count":31,"categories":[{"alias":"foodtrucks","title":"Food Trucks"},{"alias":"asianfusion","title":"Asian Fusion"}],"rating":3.5,"coordinates":{"latitude":40.0458955166728,"longitude":-75.0159519916886},"transactions":["delivery"],"price":"$$","location":{"address1":"8601 Frankford Ave","address2":null,"address3":null,"city":"Philadelphia","zip_code":"19136","country":"US","state":"PA","display_address":["8601 Frankford Ave","Philadelphia, PA 19136"]},"phone":"+12156137381","display_phone":"(215) 613-7381"},{"id":"FTYGT8M8R3A7RNXz8oIDaA","alias":"crab-shack-philadelphia","name":"Crab Shack","image_url":"","is_closed":false,"url":"https://www.yelp.com/biz/crab-shack-philadelphia?adjust_creative=yF-muq-4vG-V-hKgmMcRvQ&utm_campaign=yelp_api_v3&utm_medium=api_v3_phone_search&utm_source=yF-muq-4vG-V-hKgmMcRvQ","review_count":5,"categories":[{"alias":"seafoodmarkets","title":"Seafood Markets"}],"rating":3,"coordinates":{"latitude":40.0267122,"longitude":-75.1509011},"transactions":["delivery"],"price":"$$","location":{"address1":"4800 N 16th St","address2":"","address3":"","city":"Philadelphia","zip_code":"19141","country":"US","state":"PA","display_address":["4800 N 16th St","Philadelphia, PA 19141"]},"phone":"+12153241515","display_phone":"(215) 324-1515"},{"id":"s8P133LRpPSuypuVCwUzEA","alias":"the-crab-shack-2-philadelphia","name":"The Crab Shack 2","image_url":"https://s3-media0.fl.yelpcdn.com/bphoto/N5vGct_JKJ-oDJ_eJL5kzA/o.jpg","is_closed":false,"url":"https://www.yelp.com/biz/the-crab-shack-2-philadelphia?adjust_creative=yF-muq-4vG-V-hKgmMcRvQ&utm_campaign=yelp_api_v3&utm_medium=api_v3_phone_search&utm_source=yF-muq-4vG-V-hKgmMcRvQ","review_count":18,"categories":[{"alias":"seafood","title":"Seafood"}],"rating":3.5,"coordinates":{"latitude":40.0302099,"longitude":-75.11801},"transactions":["delivery"],"price":"$$","location":{"address1":"5305 Rising Sun Ave","address2":"","address3":"","city":"Philadelphia","zip_code":"19120","country":"US","state":"PA","display_address":["5305 Rising Sun Ave","Philadelphia, PA 19120"]},"phone":"+12154551955","display_phone":"(215) 455-1955"},{"id":"tTzXJ9oXZCCL3Wip6dEoTQ","alias":"the-crimson-cafe-philadelphia","name":"The Crimson Cafe","image_url":"https://s3-media0.fl.yelpcdn.com/bphoto/mW3TLxhyiZNxv0UTvDg1Nw/o.jpg","is_closed":false,"url":"https://www.yelp.com/biz/the-crimson-cafe-philadelphia?adjust_creative=yF-muq-4vG-V-hKgmMcRvQ&utm_campaign=yelp_api_v3&utm_medium=api_v3_phone_search&utm_source=yF-muq-4vG-V-hKgmMcRvQ","review_count":13,"categories":[{"alias":"southern","title":"Southern"},{"alias":"soulfood","title":"Soul Food"}],"rating":4,"coordinates":{"latitude":39.9619140625,"longitude":-75.2384033203125},"transactions":["delivery"],"price":"$","location":{"address1":"5847 Market St","address2":"","address3":"","city":"Philadelphia","zip_code":"19139","country":"US","state":"PA","display_address":["5847 Market St","Philadelphia, PA 19139"]},"phone":"+12154722233","display_phone":"(215) 472-2233"},{"id":"CM5Dq-mKnZYdi9OlVluehA","alias":"era-philadelphia","name":"ERA","image_url":"https://s3-media0.fl.yelpcdn.com/bphoto/T2FyNyVarMNGC0KOGwElCQ/o.jpg","is_closed":false,"url":"https://www.yelp.com/biz/era-philadelphia?adjust_creative=yF-muq-4vG-V-hKgmMcRvQ&utm_campaign=yelp_api_v3&utm_medium=api_v3_phone_search&utm_source=yF-muq-4vG-V-hKgmMcRvQ","review_count":179,"categories":[{"alias":"ethiopian","title":"Ethiopian"},{"alias":"divebars","title":"Dive Bars"}],"rating":4,"coordinates":{"latitude":39.97314,"longitude":-75.18199},"transactions":["delivery"],"price":"$","location":{"address1":"2743 Poplar St","address2":"","address3":"","city":"Philadelphia","zip_code":"19130","country":"US","state":"PA","display_address":["2743 Poplar St","Philadelphia, PA 19130"]},"phone":"+12157697008","display_phone":"(215) 769-7008"},{"id":"QZ1INuVuad6KSCcEtPSzUw","alias":"monroe-press-philadelphia","name":"Monroe Press","image_url":"","is_closed":false,"url":"https://www.yelp.com/biz/monroe-press-philadelphia?adjust_creative=yF-muq-4vG-V-hKgmMcRvQ&utm_campaign=yelp_api_v3&utm_medium=api_v3_phone_search&utm_source=yF-muq-4vG-V-hKgmMcRvQ","review_count":1,"categories":[{"alias":"screen_printing_tshirt_printing","title":"Screen Printing/T-Shirt Printing"},{"alias":"copyshops","title":"Printing Services"}],"rating":1,"coordinates":{"latitude":40.030834,"longitude":-75.231812},"transactions":[],"location":{"address1":"4674 Canton St","address2":null,"address3":"","city":"Philadelphia","zip_code":"19127","country":"US","state":"PA","display_address":["4674 Canton St","Philadelphia, PA 19127"]},"phone":"+12157787868","display_phone":"(215) 778-7868"},{"id":"C6cOQD3ELF38AeYgtfw0Dw","alias":"nile-cafe-philadelphia","name":"Nile Cafe","image_url":"https://s3-media0.fl.yelpcdn.com/bphoto/sAXu7A-fOpYNImCFtSkRaQ/o.jpg","is_closed":false,"url":"https://www.yelp.com/biz/nile-cafe-philadelphia?adjust_creative=yF-muq-4vG-V-hKgmMcRvQ&utm_campaign=yelp_api_v3&utm_medium=api_v3_phone_search&utm_source=yF-muq-4vG-V-hKgmMcRvQ","review_count":69,"categories":[{"alias":"vegan","title":"Vegan"},{"alias":"soulfood","title":"Soul Food"},{"alias":"vegetarian","title":"Vegetarian"}],"rating":4.5,"coordinates":{"latitude":40.03929,"longitude":-75.17822},"transactions":["delivery","pickup"],"price":"$$","location":{"address1":"6008 Germantown Ave","address2":"","address3":"","city":"Philadelphia","zip_code":"19144","country":"US","state":"PA","display_address":["6008 Germantown Ave","Philadelphia, PA 19144"]},"phone":"+12158436453","display_phone":"(215) 843-6453"},{"id":"or4yTLBsR0iXUUrDIl6oEg","alias":"the-spicy-belly-philadelphia","name":"The Spicy Belly","image_url":"https://s3-media0.fl.yelpcdn.com/bphoto/1Qab7wYIhkB5LmYn6F_W-A/o.jpg","is_closed":false,"url":"https://www.yelp.com/biz/the-spicy-belly-philadelphia?adjust_creative=yF-muq-4vG-V-hKgmMcRvQ&utm_campaign=yelp_api_v3&utm_medium=api_v3_phone_search&utm_source=yF-muq-4vG-V-hKgmMcRvQ","review_count":250,"categories":[{"alias":"caribbean","title":"Caribbean"},{"alias":"korean","title":"Korean"},{"alias":"asianfusion","title":"Asian Fusion"}],"rating":3.5,"coordinates":{"latitude":40.0204499,"longitude":-75.21233},"transactions":["pickup","delivery"],"price":"$$","location":{"address1":"3847 Terrace St","address2":null,"address3":"","city":"Philadelphia","zip_code":"19128","country":"US","state":"PA","display_address":["3847 Terrace St","Philadelphia, PA 19128"]},"phone":"+12154822095","display_phone":"(215) 482-2095"},{"id":"qjGS_7iaQDpbVhS6W8qkHQ","alias":"the-sweet-life-bakeshop-philadelphia-3","name":"The Sweet Life Bakeshop","image_url":"https://s3-media0.fl.yelpcdn.com/bphoto/WZTHkBJJquMvFENiOROcWA/o.jpg","is_closed":false,"url":"https://www.yelp.com/biz/the-sweet-life-bakeshop-philadelphia-3?adjust_creative=yF-muq-4vG-V-hKgmMcRvQ&utm_campaign=yelp_api_v3&utm_medium=api_v3_phone_search&utm_source=yF-muq-4vG-V-hKgmMcRvQ","review_count":292,"categories":[{"alias":"bakeries","title":"Bakeries"},{"alias":"cupcakes","title":"Cupcakes"},{"alias":"desserts","title":"Desserts"}],"rating":5,"coordinates":{"latitude":39.94224,"longitude":-75.1553},"transactions":["delivery"],"price":"$$","location":{"address1":"740 South St","address2":"","address3":"","city":"Philadelphia","zip_code":"19147","country":"US","state":"PA","display_address":["740 South St","Philadelphia, PA 19147"]},"phone":"+12157177770","display_phone":"(215) 717-7770"},{"id":"2O2K6SXPWv56amqxCECd4w","alias":"the-plum-pit-wilmington-2","name":"The Plum Pit","image_url":"https://s3-media0.fl.yelpcdn.com/bphoto/JSBfuYuorLAdhSqecJ8Frw/o.jpg","is_closed":false,"url":"https://www.yelp.com/biz/the-plum-pit-wilmington-2?adjust_creative=yF-muq-4vG-V-hKgmMcRvQ&utm_campaign=yelp_api_v3&utm_medium=api_v3_phone_search&utm_source=yF-muq-4vG-V-hKgmMcRvQ","review_count":11,"categories":[{"alias":"foodtrucks","title":"Food Trucks"}],"rating":4.5,"coordinates":{"latitude":39.74024,"longitude":-75.55084},"transactions":[],"price":"$","location":{"address1":"","address2":"","address3":"","city":"Wilmington","zip_code":"","country":"US","state":"DE","display_address":["Wilmington, DE"]},"phone":"+12672235528","display_phone":"(267) 223-5528"},{"id":"OiQ1eoqXMPyEUptpUX9JQA","alias":"thomasenas-restaurant-philadelphia","name":"Thomasena's  Restaurant","image_url":"https://s3-media0.fl.yelpcdn.com/bphoto/UESjWcc4demeNLvJsUX8gg/o.jpg","is_closed":false,"url":"https://www.yelp.com/biz/thomasenas-restaurant-philadelphia?adjust_creative=yF-muq-4vG-V-hKgmMcRvQ&utm_campaign=yelp_api_v3&utm_medium=api_v3_phone_search&utm_source=yF-muq-4vG-V-hKgmMcRvQ","review_count":44,"categories":[{"alias":"soulfood","title":"Soul Food"},{"alias":"cafeteria","title":"Cafeteria"}],"rating":3.5,"coordinates":{"latitude":40.005163,"longitude":-75.078016},"transactions":["delivery","pickup"],"price":"$$","location":{"address1":"2374 Orthodox St","address2":"","address3":null,"city":"Philadelphia","zip_code":"19137","country":"US","state":"PA","display_address":["2374 Orthodox St","Philadelphia, PA 19137"]},"phone":"+12157222434","display_phone":"(215) 722-2434"},{"id":"uD_nMWd5b5d7gW1srYH6Jg","alias":"top-taste-philadelphia","name":"Top Taste","image_url":"https://s3-media0.fl.yelpcdn.com/bphoto/iCglqq3CGtH3Af8NSAIdIw/o.jpg","is_closed":false,"url":"https://www.yelp.com/biz/top-taste-philadelphia?adjust_creative=yF-muq-4vG-V-hKgmMcRvQ&utm_campaign=yelp_api_v3&utm_medium=api_v3_phone_search&utm_source=yF-muq-4vG-V-hKgmMcRvQ","review_count":31,"categories":[{"alias":"caribbean","title":"Caribbean"}],"rating":3.5,"coordinates":{"latitude":39.96122,"longitude":-75.22489},"transactions":["delivery"],"price":"$$","location":{"address1":"40 N 52nd St","address2":"","address3":"","city":"Philadelphia","zip_code":"19139","country":"US","state":"PA","display_address":["40 N 52nd St","Philadelphia, PA 19139"]},"phone":"+12157471460","display_phone":"(215) 747-1460"},{"id":"CNSvf0y2fXeOXF18hKxCNQ","alias":"tropical-sensation-philadelphia","name":"Tropical Sensation","image_url":"https://s3-media0.fl.yelpcdn.com/bphoto/1SzCbn2sF7dOjRSsefcL_g/o.jpg","is_closed":false,"url":"https://www.yelp.com/biz/tropical-sensation-philadelphia?adjust_creative=yF-muq-4vG-V-hKgmMcRvQ&utm_campaign=yelp_api_v3&utm_medium=api_v3_phone_search&utm_source=yF-muq-4vG-V-hKgmMcRvQ","review_count":5,"categories":[{"alias":"caribbean","title":"Caribbean"}],"rating":4,"coordinates":{"latitude":39.924746,"longitude":-75.171118},"transactions":["delivery","pickup"],"location":{"address1":"1441 Snyder Ave","address2":"","address3":null,"city":"Philadelphia","zip_code":"19145","country":"US","state":"PA","display_address":["1441 Snyder Ave","Philadelphia, PA 19145"]},"phone":"+12155824353","display_phone":"(215) 582-4353"},{"id":"HSXvx9ajd9cGDzYIScmrig","alias":"tyemekas-soul-food-philadelphia","name":"TyeMeka's Soul Food","image_url":"https://s3-media0.fl.yelpcdn.com/bphoto/Lo-GeBo_bm2j1jLvZLqz2Q/o.jpg","is_closed":false,"url":"https://www.yelp.com/biz/tyemekas-soul-food-philadelphia?adjust_creative=yF-muq-4vG-V-hKgmMcRvQ&utm_campaign=yelp_api_v3&utm_medium=api_v3_phone_search&utm_source=yF-muq-4vG-V-hKgmMcRvQ","review_count":27,"categories":[{"alias":"soulfood","title":"Soul Food"}],"rating":3.5,"coordinates":{"latitude":40.0380833,"longitude":-75.1768454},"transactions":["delivery"],"price":"$$","location":{"address1":"5920 Germantown Ave","address2":"","address3":"","city":"Philadelphia","zip_code":"19144","country":"US","state":"PA","display_address":["5920 Germantown Ave","Philadelphia, PA 19144"]},"phone":"+12673686025","display_phone":"(267) 368-6025"},{"id":"QfOanqR2-5MMuYVxPxAHnA","alias":"ummi-dees-burger-bistro-philadelphia","name":"Ummi Dee's burger bistro","image_url":"https://s3-media0.fl.yelpcdn.com/bphoto/yV3b5Q_9zYygireW2KZhRw/o.jpg","is_closed":false,"url":"https://www.yelp.com/biz/ummi-dees-burger-bistro-philadelphia?adjust_creative=yF-muq-4vG-V-hKgmMcRvQ&utm_campaign=yelp_api_v3&utm_medium=api_v3_phone_search&utm_source=yF-muq-4vG-V-hKgmMcRvQ","review_count":7,"categories":[{"alias":"burgers","title":"Burgers"},{"alias":"cheesesteaks","title":"Cheesesteaks"},{"alias":"juicebars","title":"Juice Bars & Smoothies"}],"rating":3.5,"coordinates":{"latitude":39.99734,"longitude":-75.16695},"transactions":["delivery"],"price":"$$","location":{"address1":"2805 N 22nd St","address2":null,"address3":"","city":"Philadelphia","zip_code":"19132","country":"US","state":"PA","display_address":["2805 N 22nd St","Philadelphia, PA 19132"]},"phone":"+12152216166","display_phone":"(215) 221-6166"},{"id":"ZForVw2ZTiwDGfZ0XvZsXQ","alias":"uncle-bobbies-coffee-and-books-philadelphia","name":"Uncle Bobbie's Coffee & Books","image_url":"https://s3-media0.fl.yelpcdn.com/bphoto/pcVRnPgQdOKeayZPM3igBg/o.jpg","is_closed":false,"url":"https://www.yelp.com/biz/uncle-bobbies-coffee-and-books-philadelphia?adjust_creative=yF-muq-4vG-V-hKgmMcRvQ&utm_campaign=yelp_api_v3&utm_medium=api_v3_phone_search&utm_source=yF-muq-4vG-V-hKgmMcRvQ","review_count":128,"categories":[{"alias":"coffee","title":"Coffee & Tea"},{"alias":"bookstores","title":"Bookstores"}],"rating":4.5,"coordinates":{"latitude":40.03417,"longitude":-75.17171},"transactions":["delivery"],"price":"$$","location":{"address1":"5445 Germantown Ave","address2":"","address3":null,"city":"Philadelphia","zip_code":"19144","country":"US","state":"PA","display_address":["5445 Germantown Ave","Philadelphia, PA 19144"]},"phone":"+12154037058","display_phone":"(215) 403-7058"},{"id":"B0md6FVC6Or4jZXCvOv1eg","alias":"vegan-ish-philadelphia","name":"Vegan-ish","image_url":"https://s3-media0.fl.yelpcdn.com/bphoto/wVKr6gHJg11zxLjkPox3dg/o.jpg","is_closed":false,"url":"https://www.yelp.com/biz/vegan-ish-philadelphia?adjust_creative=yF-muq-4vG-V-hKgmMcRvQ&utm_campaign=yelp_api_v3&utm_medium=api_v3_phone_search&utm_source=yF-muq-4vG-V-hKgmMcRvQ","review_count":15,"categories":[{"alias":"seafood","title":"Seafood"},{"alias":"sandwiches","title":"Sandwiches"},{"alias":"burgers","title":"Burgers"}],"rating":4,"coordinates":{"latitude":39.9718334575668,"longitude":-75.2261989563704},"transactions":["pickup","delivery"],"location":{"address1":"1214 N 52nd St","address2":"","address3":null,"city":"Philadelphia","zip_code":"19131","country":"US","state":"PA","display_address":["1214 N 52nd St","Philadelphia, PA 19131"]},"phone":"+12154771153","display_phone":"(215) 477-1153"},{"id":"jkUjZI9RjmoIuMPpwpdSRw","alias":"victorias-kitchen-philadelphia","name":"Victoria's Kitchen","image_url":"https://s3-media0.fl.yelpcdn.com/bphoto/44fGmoDUPAHnVB1zCxmBkQ/o.jpg","is_closed":false,"url":"https://www.yelp.com/biz/victorias-kitchen-philadelphia?adjust_creative=yF-muq-4vG-V-hKgmMcRvQ&utm_campaign=yelp_api_v3&utm_medium=api_v3_phone_search&utm_source=yF-muq-4vG-V-hKgmMcRvQ","review_count":159,"categories":[{"alias":"soulfood","title":"Soul Food"},{"alias":"comfortfood","title":"Comfort Food"}],"rating":2.5,"coordinates":{"latitude":40.0651187,"longitude":-75.1552562},"transactions":["delivery","pickup"],"price":"$$","location":{"address1":"7304 Ogontz Ave","address2":"","address3":"","city":"Philadelphia","zip_code":"19138","country":"US","state":"PA","display_address":["7304 Ogontz Ave","Philadelphia, PA 19138"]},"phone":"+12159271066","display_phone":"(215) 927-1066"},{"id":"h7n599RGtvFLmLycugT2MQ","alias":"warmdaddys-philadelphia","name":"Warmdaddy's","image_url":"https://s3-media0.fl.yelpcdn.com/bphoto/MY2qJgEhZPYOy0-lDdUiJg/o.jpg","is_closed":false,"url":"https://www.yelp.com/biz/warmdaddys-philadelphia?adjust_creative=yF-muq-4vG-V-hKgmMcRvQ&utm_campaign=yelp_api_v3&utm_medium=api_v3_phone_search&utm_source=yF-muq-4vG-V-hKgmMcRvQ","review_count":481,"categories":[{"alias":"southern","title":"Southern"},{"alias":"breakfast_brunch","title":"Breakfast & Brunch"},{"alias":"salad","title":"Salad"}],"rating":3.5,"coordinates":{"latitude":39.92931,"longitude":-75.14516},"transactions":["delivery","pickup"],"price":"$$","location":{"address1":"1400 S Christopher Columbus Blvd","address2":"","address3":"","city":"Philadelphia","zip_code":"19147","country":"US","state":"PA","display_address":["1400 S Christopher Columbus Blvd","Philadelphia, PA 19147"]},"phone":"+12154622000","display_phone":"(215) 462-2000"},{"id":"HrAr1W-APJMBvp2em4zzeQ","alias":"wazobia-restaurant-philadelphia","name":"Wazobia Restaurant","image_url":"https://s3-media0.fl.yelpcdn.com/bphoto/5MD8kvYOG73g1RBacM7DKA/o.jpg","is_closed":false,"url":"https://www.yelp.com/biz/wazobia-restaurant-philadelphia?adjust_creative=yF-muq-4vG-V-hKgmMcRvQ&utm_campaign=yelp_api_v3&utm_medium=api_v3_phone_search&utm_source=yF-muq-4vG-V-hKgmMcRvQ","review_count":22,"categories":[{"alias":"african","title":"African"}],"rating":4,"coordinates":{"latitude":39.96333,"longitude":-75.1559599},"transactions":["delivery"],"price":"$$","location":{"address1":"616 N 11th St","address2":null,"address3":null,"city":"Philadelphia","zip_code":"19123","country":"US","state":"PA","display_address":["616 N 11th St","Philadelphia, PA 19123"]},"phone":"+12157693800","display_phone":"(215) 769-3800"}]