[{"id":"1qWw8GmJC5mWpyczRO4nfw","alias":"9-mile-station-atlanta-2","name":"9 Mile Station","image_url":"https://s3-media0.fl.yelpcdn.com/bphoto/B6gG904eTbKdh19ynT7EyA/o.jpg","is_closed":false,"url":"https://www.yelp.com/biz/9-mile-station-atlanta-2?adjust_creative=yF-muq-4vG-V-hKgmMcRvQ&utm_campaign=yelp_api_v3&utm_medium=api_v3_phone_search&utm_source=yF-muq-4vG-V-hKgmMcRvQ","review_count":264,"categories":[{"alias":"cocktailbars","title":"Cocktail Bars"},{"alias":"newamerican","title":"American (New)"}],"rating":3.5,"coordinates":{"latitude":33.772831,"longitude":-84.365785},"transactions":["delivery"],"price":"$$","location":{"address1":"675 Ponce De Leon Ave","address2":"","address3":"","city":"Atlanta","zip_code":"30308","country":"US","state":"GA","display_address":["675 Ponce De Leon Ave","Atlanta, GA 30308"]},"phone":"+17709991532","display_phone":"(770) 999-1532"},{"id":"1qWw8GmJC5mWpyczRO4nfw","alias":"9-mile-station-atlanta-2","name":"9 Mile Station","image_url":"https://s3-media0.fl.yelpcdn.com/bphoto/B6gG904eTbKdh19ynT7EyA/o.jpg","is_closed":false,"url":"https://www.yelp.com/biz/9-mile-station-atlanta-2?adjust_creative=yF-muq-4vG-V-hKgmMcRvQ&utm_campaign=yelp_api_v3&utm_medium=api_v3_phone_search&utm_source=yF-muq-4vG-V-hKgmMcRvQ","review_count":264,"categories":[{"alias":"cocktailbars","title":"Cocktail Bars"},{"alias":"newamerican","title":"American (New)"}],"rating":3.5,"coordinates":{"latitude":33.772831,"longitude":-84.365785},"transactions":["delivery"],"price":"$$","location":{"address1":"675 Ponce De Leon Ave","address2":"","address3":"","city":"Atlanta","zip_code":"30308","country":"US","state":"GA","display_address":["675 Ponce De Leon Ave","Atlanta, GA 30308"]},"phone":"+17709991532","display_phone":"(770) 999-1532"},{"id":"9HxhTfe6usPRovowtFS2aw","alias":"afrodish-restaurant-atlanta","name":"Afrodish Restaurant","image_url":"https://s3-media0.fl.yelpcdn.com/bphoto/Ol3vGaLt02G5yPaz0HX5tQ/o.jpg","is_closed":false,"url":"https://www.yelp.com/biz/afrodish-restaurant-atlanta?adjust_creative=yF-muq-4vG-V-hKgmMcRvQ&utm_campaign=yelp_api_v3&utm_medium=api_v3_phone_search&utm_source=yF-muq-4vG-V-hKgmMcRvQ","review_count":58,"categories":[{"alias":"caribbean","title":"Caribbean"}],"rating":4,"coordinates":{"latitude":33.75408,"longitude":-84.379968},"transactions":[],"price":"$","location":{"address1":"209 Edgewood Ave SE","address2":"","address3":"Municipal Market","city":"Atlanta","zip_code":"30303","country":"US","state":"GA","display_address":["209 Edgewood Ave SE","Municipal Market","Atlanta, GA 30303"]},"phone":"+14045221054","display_phone":"(404) 522-1054"},{"id":"3sFQbpTdKTlj1l8kJjDRCA","alias":"annas-bbq-atlanta","name":"Anna's BBQ","image_url":"https://s3-media0.fl.yelpcdn.com/bphoto/0yXz3zPYpuLX9JH9NEmV0g/o.jpg","is_closed":false,"url":"https://www.yelp.com/biz/annas-bbq-atlanta?adjust_creative=yF-muq-4vG-V-hKgmMcRvQ&utm_campaign=yelp_api_v3&utm_medium=api_v3_phone_search&utm_source=yF-muq-4vG-V-hKgmMcRvQ","review_count":232,"categories":[{"alias":"bbq","title":"Barbeque"},{"alias":"tradamerican","title":"American (Traditional)"},{"alias":"desserts","title":"Desserts"}],"rating":4.5,"coordinates":{"latitude":33.7518411916838,"longitude":-84.3227781717929},"transactions":["delivery","pickup"],"price":"$$","location":{"address1":"1976 Hosea L Williams Dr NE","address2":"","address3":"","city":"Atlanta","zip_code":"30317","country":"US","state":"GA","display_address":["1976 Hosea L Williams Dr NE","Atlanta, GA 30317"]},"phone":"+14049636976","display_phone":"(404) 963-6976"},{"id":"2USXU4BeqG7MMa-qFILsDQ","alias":"anns-snack-bar-atlanta","name":"Ann's Snack Bar","image_url":"https://s3-media0.fl.yelpcdn.com/bphoto/PrafLa3Hg0UX7JLef-VqGg/o.jpg","is_closed":false,"url":"https://www.yelp.com/biz/anns-snack-bar-atlanta?adjust_creative=yF-muq-4vG-V-hKgmMcRvQ&utm_campaign=yelp_api_v3&utm_medium=api_v3_phone_search&utm_source=yF-muq-4vG-V-hKgmMcRvQ","review_count":371,"categories":[{"alias":"burgers","title":"Burgers"},{"alias":"hotdog","title":"Hot Dogs"}],"rating":4,"coordinates":{"latitude":33.7472715245989,"longitude":-84.3345453230149},"transactions":["delivery"],"price":"$","location":{"address1":"1615 Memorial Dr","address2":"","address3":"","city":"Atlanta","zip_code":"30317","country":"US","state":"GA","display_address":["1615 Memorial Dr","Atlanta, GA 30317"]},"phone":"+14046879207","display_phone":"(404) 687-9207"},{"id":"GDj0GhJ3RpjUdTCGQwFfyA","alias":"apple-butter-bakery-and-custom-cake-shoppe-stone-mountain-2","name":"Apple-Butter Bakery & Custom Cake Shoppe","image_url":"https://s3-media0.fl.yelpcdn.com/bphoto/_VY3d9I_gm2NDBE0W8h0Ug/o.jpg","is_closed":false,"url":"https://www.yelp.com/biz/apple-butter-bakery-and-custom-cake-shoppe-stone-mountain-2?adjust_creative=yF-muq-4vG-V-hKgmMcRvQ&utm_campaign=yelp_api_v3&utm_medium=api_v3_phone_search&utm_source=yF-muq-4vG-V-hKgmMcRvQ","review_count":56,"categories":[{"alias":"cupcakes","title":"Cupcakes"},{"alias":"customcakes","title":"Custom Cakes"},{"alias":"desserts","title":"Desserts"}],"rating":4.5,"coordinates":{"latitude":33.819926644678,"longitude":-84.1139645896966},"transactions":["pickup","delivery"],"price":"$$","location":{"address1":"5370 Stone Mountain Hwy","address2":"Ste 600","address3":"","city":"Stone Mountain","zip_code":"30087","country":"US","state":"GA","display_address":["5370 Stone Mountain Hwy","Ste 600","Stone Mountain, GA 30087"]},"phone":"+16784760902","display_phone":"(678) 476-0902"},{"id":"GJxFtnTqTiokFedNrW9iDQ","alias":"atlanta-breakfast-club-atlanta","name":"Atlanta Breakfast Club","image_url":"https://s3-media0.fl.yelpcdn.com/bphoto/MFX8nCcp1ZhZNLumOa1NkA/o.jpg","is_closed":false,"url":"https://www.yelp.com/biz/atlanta-breakfast-club-atlanta?adjust_creative=yF-muq-4vG-V-hKgmMcRvQ&utm_campaign=yelp_api_v3&utm_medium=api_v3_phone_search&utm_source=yF-muq-4vG-V-hKgmMcRvQ","review_count":3392,"categories":[{"alias":"southern","title":"Southern"},{"alias":"breakfast_brunch","title":"Breakfast & Brunch"},{"alias":"tradamerican","title":"American (Traditional)"}],"rating":4.5,"coordinates":{"latitude":33.7649,"longitude":-84.39546},"transactions":["pickup","delivery"],"price":"$$","location":{"address1":"249 Ivan Allen Jr Blvd","address2":"","address3":"","city":"Atlanta","zip_code":"30313","country":"US","state":"GA","display_address":["249 Ivan Allen Jr Blvd","Atlanta, GA 30313"]},"phone":"+14704283825","display_phone":"(470) 428-3825"},{"id":"sDEfnTYtY2_c2pOq0VLQjg","alias":"baltimore-crab-and-seafood-atlanta-2","name":"Baltimore Crab & Seafood","image_url":"https://s3-media0.fl.yelpcdn.com/bphoto/SHLOBRiJRc9YgKvOHC1SFQ/o.jpg","is_closed":false,"url":"https://www.yelp.com/biz/baltimore-crab-and-seafood-atlanta-2?adjust_creative=yF-muq-4vG-V-hKgmMcRvQ&utm_campaign=yelp_api_v3&utm_medium=api_v3_phone_search&utm_source=yF-muq-4vG-V-hKgmMcRvQ","review_count":233,"categories":[{"alias":"seafood","title":"Seafood"},{"alias":"bars","title":"Bars"},{"alias":"salad","title":"Salad"}],"rating":3.5,"coordinates":{"latitude":33.72399883,"longitude":-84.5104388191394},"transactions":["delivery","pickup"],"price":"$$","location":{"address1":"1075 Fairburn Rd SW","address2":"","address3":"","city":"Atlanta","zip_code":"30331","country":"US","state":"GA","display_address":["1075 Fairburn Rd SW","Atlanta, GA 30331"]},"phone":"+14045052900","display_phone":"(404) 505-2900"},{"id":"p_gM0HoNhZsSO5Ew0tGvOg","alias":"baker-dude-bakery-cafe-atlanta","name":"Baker Dude Bakery Cafe","image_url":"https://s3-media0.fl.yelpcdn.com/bphoto/wuFGgWnaZrBXVdDD8j6rug/o.jpg","is_closed":false,"url":"https://www.yelp.com/biz/baker-dude-bakery-cafe-atlanta?adjust_creative=yF-muq-4vG-V-hKgmMcRvQ&utm_campaign=yelp_api_v3&utm_medium=api_v3_phone_search&utm_source=yF-muq-4vG-V-hKgmMcRvQ","review_count":53,"categories":[{"alias":"cupcakes","title":"Cupcakes"},{"alias":"bakeries","title":"Bakeries"},{"alias":"sandwiches","title":"Sandwiches"}],"rating":4.5,"coordinates":{"latitude":33.725542,"longitude":-84.377447},"transactions":["pickup","delivery"],"price":"$","location":{"address1":"1039 Grant St SE","address2":"Ste B18","address3":"","city":"Atlanta","zip_code":"30315","country":"US","state":"GA","display_address":["1039 Grant St SE","Ste B18","Atlanta, GA 30315"]},"phone":"+14049978177","display_phone":"(404) 997-8177"},{"id":"BhC_aojYzH4mGPG_pShEhA","alias":"ben-and-jerry-s-atlanta","name":"Ben & Jerryâ€™s","image_url":"https://s3-media0.fl.yelpcdn.com/bphoto/cqhUD49bXnm8UGQQAltmqw/o.jpg","is_closed":false,"url":"https://www.yelp.com/biz/ben-and-jerry-s-atlanta?adjust_creative=yF-muq-4vG-V-hKgmMcRvQ&utm_campaign=yelp_api_v3&utm_medium=api_v3_phone_search&utm_source=yF-muq-4vG-V-hKgmMcRvQ","review_count":19,"categories":[{"alias":"icecream","title":"Ice Cream & Frozen Yogurt"},{"alias":"catering","title":"Caterers"},{"alias":"customcakes","title":"Custom Cakes"}],"rating":3.5,"coordinates":{"latitude":33.7633235659413,"longitude":-84.3579750161972},"transactions":["delivery","pickup"],"price":"$$$$","location":{"address1":"312 N Highland Ave","address2":"Ste B","address3":null,"city":"Atlanta","zip_code":"30307","country":"US","state":"GA","display_address":["312 N Highland Ave","Ste B","Atlanta, GA 30307"]},"phone":"+16789748495","display_phone":"(678) 974-8495"},{"id":"6c7qO_TQdfURkIBJdjO3xQ","alias":"bella-a-baltimore-crab-and-seafood-company-atlanta","name":"Bella A Baltimore Crab & Seafood Company","image_url":"https://s3-media0.fl.yelpcdn.com/bphoto/rR-QhI9447AkgBjjY9BJoQ/o.jpg","is_closed":false,"url":"https://www.yelp.com/biz/bella-a-baltimore-crab-and-seafood-company-atlanta?adjust_creative=yF-muq-4vG-V-hKgmMcRvQ&utm_campaign=yelp_api_v3&utm_medium=api_v3_phone_search&utm_source=yF-muq-4vG-V-hKgmMcRvQ","review_count":17,"categories":[{"alias":"newamerican","title":"American (New)"},{"alias":"breakfast_brunch","title":"Breakfast & Brunch"},{"alias":"cocktailbars","title":"Cocktail Bars"}],"rating":4.5,"coordinates":{"latitude":33.6670299,"longitude":-84.5489},"transactions":[],"price":"$$","location":{"address1":"3220 Butner Rd","address2":"Ste 250","address3":"","city":"Atlanta","zip_code":"30331","country":"US","state":"GA","display_address":["3220 Butner Rd","Ste 250","Atlanta, GA 30331"]},"phone":"+14042288657","display_phone":"(404) 228-8657"},{"id":"yUQBtNuGsHoNIOXVyAw6wg","alias":"the-beverly-atlanta","name":"The Beverly","image_url":"https://s3-media0.fl.yelpcdn.com/bphoto/zbryBQqloCdOEMD4h-LXdA/o.jpg","is_closed":false,"url":"https://www.yelp.com/biz/the-beverly-atlanta?adjust_creative=yF-muq-4vG-V-hKgmMcRvQ&utm_campaign=yelp_api_v3&utm_medium=api_v3_phone_search&utm_source=yF-muq-4vG-V-hKgmMcRvQ","review_count":25,"categories":[{"alias":"newamerican","title":"American (New)"},{"alias":"sportsbars","title":"Sports Bars"}],"rating":3,"coordinates":{"latitude":33.74055,"longitude":-84.36135},"transactions":["delivery"],"location":{"address1":"790 Glenwood Ave SE","address2":"","address3":"","city":"Atlanta","zip_code":"30316","country":"US","state":"GA","display_address":["790 Glenwood Ave SE","Atlanta, GA 30316"]},"phone":"+14049074909","display_phone":"(404) 907-4909"}]